{
  "minerals": [
    { "name": "Aerinite", "lat": "42.03778", "lng": "0.55944" },
    { "name": "Afghanite", "lat": "36.16667", "lng": "70.81667" },
    { "name": "Afwillite", "lat": "-28.76074", "lng": "24.79943" },
    { "name": "Agrellite", "lat": "46.80278", "lng": "-78.49472" },
    { "name": "Agrinierite", "lat": "45.98611", "lng": "1.30833" },
    { "name": "Aheylite", "lat": "-18.28444", "lng": "-66.83306" },
    { "name": "Ahlfeldite", "lat": "-18.65000", "lng": "-66.01667" },
    { "name": "Aikinite", "lat": "56.90000", "lng": "60.78333" },
    { "name": "Ajoite", "lat": "32.35556", "lng": "-112.86500" },
    { "name": "Akaganeite", "lat": "39.16667", "lng": "141.33333" },
    { "name": "Akatoreite", "lat": "-46.13423", "lng": "170.18274" },
    { "name": "Akdalaite", "lat": "47.25750", "lng": "71.24222" },
    { "name": "Akrochordite", "lat": "59.85519", "lng": "14.25818" },
    { "name": "Aksaite", "lat": "47.81667", "lng": "59.61667" },
    { "name": "Aktashite", "lat": "50.30000", "lng": "87.58333" },
    { "name": "Alabandite", "lat": "45.97389", "lng": "23.04000" },
    { "name": "Alamosite", "lat": "27.01667", "lng": "-108.96667" },
    { "name": "Alarsite", "lat": "55.83333", "lng": "160.33333" },
    { "name": "Aldermanite", "lat": "-34.47750", "lng": "139.09028" },
    { "name": "Allactite", "lat": "59.81667", "lng": "14.10000" },
    { "name": "Allargentum", "lat": "47.36972", "lng": "-79.67028" },
    { "name": "Alleghanyite", "lat": "36.55000", "lng": "-81.09583" },
    { "name": "Alluaivite", "lat": "67.85000", "lng": "34.53333" },
    { "name": "Alluaudite", "lat": "64.80083", "lng": "20.74111" },
    { "name": "Althausite", "lat": "59.94115", "lng": "9.86818" },
    { "name": "Althupite", "lat": "-3.08333", "lng": "27.13333" },
    { "name": "Altisite", "lat": "67.74722", "lng": "34.13333" },
    { "name": "Alumotantite", "lat": "68.38361", "lng": "35.86361" },
    { "name": "Amakinite", "lat": "66.43333", "lng": "112.31667" },
    { "name": "Ameghinite", "lat": "-25.26861", "lng": "-67.05750" },
    { "name": "Amesite", "lat": "42.27005", "lng": "-73.00119" },
    { "name": "Amicite", "lat": "47.91194", "lng": "8.74027" },
    { "name": "Aminoffite", "lat": "59.85538", "lng": "14.26480" },
    { "name": "Ammonioalunite", "lat": "38.80194", "lng": "-122.80306" },
    { "name": "Ammonioborite", "lat": "43.23333", "lng": "10.86667" },
    { "name": "Amstallite", "lat": "48.37750", "lng": "15.30222" },
    { "name": "Ameghinite", "lat": "-25.26861", "lng": "-67.05750" },
    { "name": "Amesite", "lat": "42.27005", "lng": "-73.00119" },
    { "name": "Amicite", "lat": "47.91194", "lng": "8.74027" },
    { "name": "Aminoffite", "lat": "59.85538", "lng": "14.26480" },
    { "name": "Ammonioalunite", "lat": "38.80194", "lng": "-122.80306" },
    { "name": "Ammonioborite", "lat": "43.23333", "lng": "10.86667" },
    { "name": "Amstallite", "lat": "48.37750", "lng": "15.30222" },
    { "name": "Anapaite", "lat": "44.88333", "lng": "37.31667" },
    { "name": "Andersonite", "lat": "34.63278", "lng": "-113.20972" },
    { "name": "Andrémeyerite", "lat": "-1.52199", "lng": "29.24949" },
    { "name": "Anglesite", "lat": "53.38694", "lng": "-4.34444" },
    { "name": "Anhydrite", "lat": "47.32583", "lng": "11.47444" },
    { "name": "Anilite", "lat": "39.98181", "lng": "140.41652" },
    { "name": "Annite", "lat": "42.65556", "lng": "-70.62028" },
    { "name": "Anorthite", "lat": "40.84028", "lng": "14.42000" },
    { "name": "Antarcticite", "lat": "-77.56328", "lng": "161.18866" },
    { "name": "Anthonyite", "lat": "47.25833", "lng": "-88.42861" },
    { "name": "Anthophyllite", "lat": "59.69193", "lng": "9.68418" },
    { "name": "Antimony", "lat": "59.90778", "lng": "16.57889" },
    { "name": "Antimonselite", "lat": "26.88333", "lng": "106.80000" },
    { "name": "Antlerite", "lat": "34.86673", "lng": "-113.86749" },
    { "name": "Apachite", "lat": "33.05833", "lng": "-110.74583" },
    { "name": "Aphthitalite", "lat": "40.82167", "lng": "14.42625" },
    { "name": "Apjohnite", "lat": "-26.18808", "lng": "32.81124" },
    { "name": "Aplowite", "lat": "45.20620", "lng": "-64.04158" },
    { "name": "Apuanite", "lat": "43.99861", "lng": "10.29444" },
    { "name": "Argentojarosite", "lat": "39.95000", "lng": "-112.06667" },
    { "name": "Arsenogoyazite", "lat": "48.37963", "lng": "8.22895" },
    { "name": "Arsenohauchecornite", "lat": "46.41556", "lng": "-81.36139" },
    { "name": "Arsenogorceixite", "lat": "48.37963", "lng": "8.22895" },
    { "name": "Aragonite", "lat": "40.85028", "lng": "-1.90556" },
    { "name": "Aramayoite", "lat": "-20.96417", "lng": "-66.30667" },
    { "name": "Aravaipaite", "lat": "32.88250", "lng": "-110.31750" },
    { "name": "Armangite", "lat": "59.85538", "lng": "14.26480" },
    { "name": "Armenite", "lat": "59.65050", "lng": "9.59367" },
    { "name": "Arsendescloizite", "lat": "-19.22704", "lng": "17.72764" },
    { "name": "Arseniopleite", "lat": "59.66847", "lng": "14.60791" },
    { "name": "Arseniosiderite", "lat": "46.18889", "lng": "4.73361" },
    { "name": "Arsenoclasite", "lat": "59.85538", "lng": "14.26480" },
    { "name": "Arsentsumebite", "lat": "-19.22704", "lng": "17.72764" },
    { "name": "Arsenuranospathite", "lat": "48.33333", "lng": "8.33333" },
    { "name": "Arthurite", "lat": "50.52139", "lng": "-4.24611" },
    { "name": "Artinite", "lat": "46.28817", "lng": "9.90427" },
    { "name": "Artroeite", "lat": "32.88250", "lng": "-110.31750" },
    { "name": "Arupite", "lat": "-26.21667", "lng": "-48.60000" },
    { "name": "Asbecasite", "lat": "46.32891", "lng": "8.21640" },
    { "name": "Ashburtonite", "lat": "-23.41192", "lng": "116.95729" },
    { "name": "Asisite", "lat": "-19.78333", "lng": "18.01667" },
    { "name": "Asselbornite", "lat": "50.58833", "lng": "12.63889" },
    { "name": "Athabascaite", "lat": "59.54583", "lng": "-108.55282" },
    { "name": "Atlasovite", "lat": "55.83333", "lng": "160.33333" },
    { "name": "Atokite", "lat": "-24.29722", "lng": "29.87917" },
    { "name": "Attakolite", "lat": "56.16667", "lng": "14.48333" },
    { "name": "Aubertite", "lat": "-22.40810", "lng": "-68.95486" },
    { "name": "Aurichalcite", "lat": "51.40000", "lng": "81.38333" },
    { "name": "Auricupride", "lat": "55.50000", "lng": "60.00000" },
    { "name": "Aurorite", "lat": "39.22194", "lng": "-115.48250" },
    { "name": "Austinite", "lat": "40.16139", "lng": "-113.80667" },
    { "name": "Autunite", "lat": "46.82872", "lng": "4.29647" },
    { "name": "Avicennite", "lat": "39.74479", "lng": "65.73426" },
    { "name": "Avogadrite", "lat": "40.82167", "lng": "14.42625" },
    { "name": "Awaruite", "lat": "-44.18895", "lng": "168.30514" },
    { "name": "Azoproite", "lat": "52.84167", "lng": "106.71556" },
    { "name": "Azurite", "lat": "45.89583", "lng": "4.61278" },
    { "name": "Augelite", "lat": "56.16667", "lng": "14.48333" },
    { "name": "Almandine", "lat": "37.59889", "lng": "27.95889" },
    { "name": "Ashoverite", "lat": "53.15528", "lng": "-1.47333" },
    { "name": "Anandite", "lat": "7.31709", "lng": "79.95777" },
    { "name": "Barytolamprophyllite", "lat": "67.73333", "lng": "33.66667" },
    { "name": "Barytocalcite", "lat": "54.81889", "lng": "-2.40311" },
    { "name": "Bariopharmacosiderite", "lat": "48.37963", "lng": "8.22895" },
    { "name": "Babefphite", "lat": "54.45000", "lng": "113.25000" },
    { "name": "Baddeleyite", "lat": "6.41667", "lng": "80.66667" },
    { "name": "Bafertisite", "lat": "41.79583", "lng": "109.96944" },
    { "name": "Bahianite", "lat": "-13.48195", "lng": "-42.04269" },
    { "name": "Baileychlore", "lat": "-17.11944", "lng": "144.40333" },
    { "name": "Balangeroite", "lat": "45.29297", "lng": "7.50980" },
    { "name": "Balipholite", "lat": "25.45861", "lng": "112.56722" },
    { "name": "Balkanite", "lat": "43.17009", "lng": "23.47673" },
    { "name": "Bambollaite", "lat": "29.80000", "lng": "-109.66667" },
    { "name": "Banalsite", "lat": "52.82073", "lng": "-4.63896" },
    { "name": "Bandylite", "lat": "-22.40810", "lng": "-68.95486" },
    { "name": "Bannermanite", "lat": "13.81366", "lng": "-89.63264" },
    { "name": "Baotite", "lat": "41.79583", "lng": "109.96944" },
    { "name": "Bararite", "lat": "23.70000", "lng": "86.42778" },
    { "name": "Baratovite", "lat": "39.45035", "lng": "70.71634" },
    { "name": "Barberiite", "lat": "38.40000", "lng": "14.96000" },
    { "name": "Barbosalite", "lat": "-18.90083", "lng": "-41.48444" },
    { "name": "Balangeroite", "lat": "45.29297", "lng": "7.50980" },
    { "name": "Balipholite", "lat": "25.45861", "lng": "112.56722" },
    { "name": "Balkanite", "lat": "43.17009", "lng": "23.47673" },
    { "name": "Bambollaite", "lat": "29.80000", "lng": "-109.66667" },
    { "name": "Banalsite", "lat": "52.82073", "lng": "-4.63896" },
    { "name": "Bandylite", "lat": "-22.40810", "lng": "-68.95486" },
    { "name": "Bannermanite", "lat": "13.81366", "lng": "-89.63264" },
    { "name": "Bartonite", "lat": "41.13333", "lng": "-123.85889" },
    { "name": "Barylite", "lat": "59.85538", "lng": "14.26480" },
    { "name": "Barysilite", "lat": "59.78528", "lng": "14.31389" },
    { "name": "Bassanite", "lat": "40.82167", "lng": "14.42625" },
    { "name": "Bassetite", "lat": "50.21377", "lng": "-5.23717" },
    { "name": "Batisite", "lat": "58.53671", "lng": "124.91404" },
    { "name": "Argentobaumhauerite", "lat": "46.36500", "lng": "8.22111" },
    { "name": "Baumhauerite", "lat": "46.36500", "lng": "8.22111" },
    { "name": "Bauranoite", "lat": "50.09177", "lng": "118.24956" },
    { "name": "Bavenite", "lat": "45.91667", "lng": "8.48361" },
    { "name": "Bayldonite", "lat": "50.14135", "lng": "-5.42403" },
    { "name": "Bayleyite", "lat": "34.63278", "lng": "-113.20972" },
    { "name": "Bazirite", "lat": "57.59611", "lng": "-13.68722" },
    { "name": "Bazzite", "lat": "45.91667", "lng": "8.48361" },
    { "name": "Bearsite", "lat": "45.69472", "lng": "81.86946" },
    { "name": "Bechererite", "lat": "33.64778", "lng": "-112.93222" },
    { "name": "Becquerelite", "lat": "-11.04861", "lng": "26.55083" },
    { "name": "Béhierite", "lat": "-20.09207", "lng": "46.95968" },
    { "name": "Behoite", "lat": "30.62197", "lng": "-98.76487" },
    { "name": "Belendorffite", "lat": "49.72500", "lng": "7.78083" },
    { "name": "Bellbergite", "lat": "50.33306", "lng": "7.24917" },
    { "name": "Bellidoite", "lat": "49.41667", "lng": "16.21667" },
    { "name": "Bellingerite", "lat": "-22.28944", "lng": "-68.90111" },
    { "name": "Bementite", "lat": "41.11778", "lng": "-74.58750" },
    { "name": "Benauite", "lat": "48.37963", "lng": "8.22895" },
    { "name": "Benitoite", "lat": "36.33611", "lng": "-120.60528" },
    { "name": "Benstonite", "lat": "34.47302", "lng": "-92.81278" },
    { "name": "Beraunite", "lat": "49.75953", "lng": "13.83510" },
    { "name": "Berborite", "lat": "61.55000", "lng": "31.50000" },
    { "name": "Bergenite", "lat": "50.46917", "lng": "12.26167" },
    { "name": "Bergslagite", "lat": "59.85538", "lng": "14.26480" },
    { "name": "Berlinite", "lat": "56.16667", "lng": "14.48333" },
    { "name": "Bernalite", "lat": "-31.96074", "lng": "141.46592" },
    { "name": "Bernardite", "lat": "41.14833", "lng": "21.95361" },
    { "name": "Berndtite", "lat": "-19.61833", "lng": "-65.74972" },
    { "name": "Bertossaite", "lat": "-1.92139", "lng": "29.65417" },
    { "name": "Berzelianite", "lat": "58.16046", "lng": "16.41987" },
    { "name": "Berzeliite", "lat": "59.85538", "lng": "14.26480" },
    { "name": "Beudantite", "lat": "50.60535", "lng": "7.51059" },
    { "name": "Beusite", "lat": "-32.94533", "lng": "-66.00284" },
    { "name": "Bezsmertnovite", "lat": "55.46667", "lng": "158.00000" },
    { "name": "Bismutohauchecornite", "lat": "69.52480", "lng": "88.34007" },
    { "name": "Bianchite", "lat": "46.44347", "lng": "13.56952" },
    { "name": "Bicchulite", "lat": "34.76667", "lng": "133.43333" },
    { "name": "Bideauxite", "lat": "32.70639", "lng": "-110.68306" },
    { "name": "Bieberite", "lat": "50.14083", "lng": "9.36194" },
    { "name": "Bikitaite", "lat": "-19.95043", "lng": "31.43946" },
    { "name": "Bilibinskite", "lat": "55.46667", "lng": "158.0" },
    { "name": "Billietite", "lat": "-11.04861", "lng": "26.55083" },
    { "name": "Billingsleyite", "lat": "39.95861", "lng": "-112.07028" },
    { "name": "Biphosphammite", "lat": "-32.04333", "lng": "126.03859" },
    { "name": "Biringuccite", "lat": "43.23333", "lng": "10.86667" },
    { "name": "Birnessite", "lat": "57.40322", "lng": "-1.99291" },
    { "name": "Bischofite", "lat": "51.84056", "lng": "11.60694" },
    { "name": "Bismite", "lat": "-19.31889", "lng": "-65.54167" },
    { "name": "Bismuth", "lat": "-26.195246", "lng": "28.034088" },
    { "name": "Bityite", "lat": "-20.06583", "lng": "46.95139" },
    { "name": "Bjarebyite", "lat": "43.75130", "lng": "-71.88956" },
    { "name": "Blakeite", "lat": "37.71694", "lng": "-117.22361" },
    { "name": "Blatterite", "lat": "59.83210", "lng": "14.12423" },
    { "name": "Blödite", "lat": "47.66667", "lng": "13.63333" },
    { "name": "Blixite", "lat": "59.85538", "lng": "14.26480" },
    { "name": "Blossite", "lat": "13.81366", "lng": "-89.63264" },
    { "name": "Bobfergusonite", "lat": "54.68333", "lng": "-97.81667" },
    { "name": "Bilibinskite", "lat": "55.46667", "lng": "158.00000" },
    { "name": "Billietite", "lat": "-11.04861", "lng": "26.55083" },
    { "name": "Billingsleyite", "lat": "39.95861", "lng": "-112.07028" },
    { "name": "Biphosphammite", "lat": "-32.04333", "lng": "126.03859" },
    { "name": "Biringuccite", "lat": "43.23333", "lng": "10.86667" },
    { "name": "Birnessite", "lat": "57.40322", "lng": "-1.99291" },
    { "name": "Bischofite", "lat": "51.84056", "lng": "11.60694" },
    { "name": "Bismite", "lat": "-19.31889", "lng": "-65.54167" },
    { "name": "Bityite", "lat": "-20.06583", "lng": "46.95139" },
    { "name": "Bjarebyite", "lat": "43.75130", "lng": "-71.88956" },
    { "name": "Blakeite", "lat": "37.71694", "lng": "-117.22361" },
    { "name": "Blatterite", "lat": "59.83210", "lng": "14.12423" },
    { "name": "Blödite", "lat": "47.66667", "lng": "13.63333" },
    { "name": "Blixite", "lat": "59.85538", "lng": "14.26480" },
    { "name": "Blossite", "lat": "13.81366", "lng": "-89.63264" },
    { "name": "Bobfergusonite", "lat": "54.68333", "lng": "-97.81667" },
    { "name": "Bogdanovite", "lat": "55.46667", "lng": "158.00000" },
    { "name": "Bøggildite", "lat": "61.20611", "lng": "-48.17556" },
    { "name": "Boggsite", "lat": "46.02028", "lng": "-122.87889" },
    { "name": "Bøgvadite", "lat": "61.20611", "lng": "-48.17556" },
    { "name": "Böhmite", "lat": "43.73111", "lng": "4.83037" },
    { "name": "Boltwoodite", "lat": "38.56349", "lng": "-110.94395" },
    { "name": "Bonaccordite", "lat": "-25.67314", "lng": "31.16952" },
    { "name": "Boracite", "lat": "53.24889", "lng": "10.39639" },
    { "name": "Bottinoite", "lat": "43.99139", "lng": "10.25833" },
    { "name": "Bowieite", "lat": "58.86222", "lng": "-161.76917" },
    { "name": "Boyleite", "lat": "47.86250", "lng": "7.75320" },
    { "name": "Bracewellite", "lat": "5.26667", "lng": "-59.83333" },
    { "name": "Bradleyite", "lat": "41.56806", "lng": "-109.80056" },
    { "name": "Brandtite", "lat": "59.78528", "lng": "14.31389" },
    { "name": "Brannockite", "lat": "35.21111", "lng": "-81.35556" },
    { "name": "Brookite", "lat": "52.94807", "lng": "-4.11311" },
    { "name": "Brunogeierite", "lat": "-19.22704", "lng": "17.72764" },
    { "name": "Brushite", "lat": "15.67029", "lng": "-63.61871" },
    { "name": "Buchwaldite", "lat": "76.13333", "lng": "-64.93333" },
    { "name": "Buckhornite", "lat": "40.12246", "lng": "-105.39870" },
    { "name": "Buddingtonite", "lat": "39.00389", "lng": "-122.66528" },
    { "name": "Bukovite", "lat": "49.45750", "lng": "16.22861" },
    { "name": "Burangaite", "lat": "-1.92139", "lng": "29.65417" },
    { "name": "Burbankite", "lat": "48.16806", "lng": "-109.71694" },
    { "name": "Burckhardtite", "lat": "29.80000", "lng": "-109.66667" },
    { "name": "Burkeite", "lat": "35.73833", "lng": "-117.37389" },
    { "name": "Burpalite", "lat": "56.23333", "lng": "110.76667" },
    { "name": "Burtite", "lat": "33.52389", "lng": "-5.83056" },
    { "name": "Bustamite", "lat": "41.11583", "lng": "-74.58750" },
    { "name": "Butlerite", "lat": "34.75000", "lng": "-112.12222" },
    { "name": "Buttgenbachite", "lat": "-11.00417", "lng": "26.74278" },
    { "name": "Bystrite", "lat": "51.68056", "lng": "103.42167" },
    { "name": "Benleonardite", "lat": "29.80000", "lng": "-109.66667" },
    { "name": "Brucite", "lat": "40.74500", "lng": "-74.02333" },
    { "name": "Calciocopiapite", "lat": "40.51139", "lng": "46.07389" },
    { "name": "Calcioburbankite", "lat": "45.56278", "lng": "-73.14167" },
    { "name": "Calciouranoite", "lat": "50.09177", "lng": "118.24956" },
    { "name": "Calcioaravaipaite", "lat": "32.88250", "lng": "-110.31750" },
    { "name": "Calciohilairite", "lat": "48.52417", "lng": "-120.65306" },
    { "name": "Calciotantite", "lat": "68.38361", "lng": "35.86361" },
    { "name": "Cabriite", "lat": "69.52480", "lng": "88.34007" },
    { "name": "Cacoxenite", "lat": "49.75953", "lng": "13.83510" },
    { "name": "Cadwaladerite", "lat": "-20.62944", "lng": "-69.65722" },
    { "name": "Cafarsite", "lat": "46.32891", "lng": "8.21640" },
    { "name": "Cafetite", "lat": "67.43134", "lng": "32.75556" },
    { "name": "Cahnite", "lat": "41.11583", "lng": "-74.58750" },
    { "name": "Calaverite", "lat": "38.02139", "lng": "-120.50361" },
    { "name": "Calciborite", "lat": "59.78333", "lng": "60.50000" },
    { "name": "Calciocatapleiite", "lat": "56.23333", "lng": "110.76667" },
    { "name": "Caledonite", "lat": "55.41846", "lng": "-3.76005" },
    { "name": "Callaghanite", "lat": "38.87194", "lng": "-117.89917" },
    { "name": "Calomel", "lat": "49.72500", "lng": "7.78083" },
    { "name": "Calumetite", "lat": "47.25833", "lng": "-88.42861" },
    { "name": "Camérolaite", "lat": "43.08139", "lng": "6.03222" },
    { "name": "Cameronite", "lat": "38.34306", "lng": "-107.00722" },
    { "name": "Camgasite", "lat": "48.33260", "lng": "8.35380" },
    { "name": "Caminite", "lat": "20.83330", "lng": "-109.08330" },
    { "name": "Campigliaite", "lat": "43.07417", "lng": "10.61750" },
    { "name": "Canaphite", "lat": "40.87056", "lng": "-74.20000" },
    { "name": "Canasite", "lat": "67.64059", "lng": "33.74245" },
    { "name": "Canavesite", "lat": "45.49946", "lng": "7.81750" },
    { "name": "Cancrisilite", "lat": "67.85000", "lng": "34.53333" },
    { "name": "Cannizzarite", "lat": "38.40000", "lng": "14.96000" },
    { "name": "Cannonite", "lat": "38.45000", "lng": "-112.23333" },
    { "name": "Capgaronnite", "lat": "43.08139", "lng": "6.03222" },
    { "name": "Caracolite", "lat": "-22.95777", "lng": "-69.07687" },
    { "name": "Carboborite", "lat": "37.83194", "lng": "95.25444" },
    { "name": "Carboirite", "lat": "42.75200", "lng": "1.27500" },
    { "name": "Carbonatecyanotrichite", "lat": "44.53333", "lng": "67.41667" },
    { "name": "Carletonite", "lat": "45.56278", "lng": "-73.14167" },
    { "name": "Carlfriesite", "lat": "29.80000", "lng": "-109.66667" },
    { "name": "Carlhintzeite", "lat": "49.65028", "lng": "12.45972" },
    { "name": "Carlinite", "lat": "40.91167", "lng": "-116.32389" },
    { "name": "Carlosruizite", "lat": "-20.24250", "lng": "-70.13504" },
    { "name": "Carlosturanite", "lat": "44.58667", "lng": "7.11889" },
    { "name": "Carlsbergite", "lat": "76.13333", "lng": "-64.93333" },
    { "name": "Carminite", "lat": "50.60535", "lng": "7.51059" },
    { "name": "Carnotite", "lat": "38.43779", "lng": "-108.90648" },
    { "name": "Carobbiite", "lat": "40.82167", "lng": "14.42625" },
    { "name": "Carrboydite", "lat": "-30.06667", "lng": "121.62917" },
    { "name": "Carrollite", "lat": "39.48944", "lng": "-76.87750" },
    { "name": "Caryinite", "lat": "59.85538", "lng": "14.26480" },
    { "name": "Caryopilite", "lat": "59.78528", "lng": "14.31389" },
    { "name": "Cascandite", "lat": "45.86888", "lng": "8.44429" },
    { "name": "Cassedanneite", "lat": "56.90000", "lng": "60.78333" },
    { "name": "Cassidyite", "lat": "-19.17187", "lng": "127.79538" },
    { "name": "Caswellsilverite", "lat": "39.68333", "lng": "-99.86667" },
    { "name": "Cattierite", "lat": "-11.04861", "lng": "26.55083" },
    { "name": "Cavansite", "lat": "43.62480", "lng": "-117.23541" },
    { "name": "Cebollite", "lat": "38.25319", "lng": "-107.05328" },
    { "name": "Celestine", "lat": "40.60583", "lng": "-78.32306" },
    { "name": "Celsian", "lat": "59.82801", "lng": "14.10721" },
    { "name": "Carlosruizite", "lat": "-20.24250", "lng": "-70.13504" },
    { "name": "Carlosturanite", "lat": "44.58667", "lng": "7.11889" },
    { "name": "Carlsbergite", "lat": "76.13333", "lng": "-64.93333" },
    { "name": "Carminite", "lat": "50.60535", "lng": "7.51059" },
    { "name": "Carnotite", "lat": "38.43779", "lng": "-108.90648" },
    { "name": "Carobbiite", "lat": "40.82167", "lng": "14.42625" },
    { "name": "Carrboydite", "lat": "-30.06667", "lng": "121.62917" },
    { "name": "Carrollite", "lat": "39.48944", "lng": "-76.87750" },
    { "name": "Caryinite", "lat": "59.85538", "lng": "14.26480" },
    { "name": "Caryopilite", "lat": "59.78528", "lng": "14.31389" },
    { "name": "Cascandite", "lat": "45.86888", "lng": "8.44429" },
    { "name": "Cassedanneite", "lat": "56.90000", "lng": "60.78333" },
    { "name": "Cassidyite", "lat": "-19.17187", "lng": "127.79538" },
    { "name": "Caswellsilverite", "lat": "39.68333", "lng": "-99.86667" },
    { "name": "Cattierite", "lat": "-11.04861", "lng": "26.55083" },
    { "name": "Cavansite", "lat": "43.62480", "lng": "-117.23541" },
    { "name": "Cebollite", "lat": "38.25319", "lng": "-107.05328" },
    { "name": "Celestine", "lat": "40.60583", "lng": "-78.32306" },
    { "name": "Celsian", "lat": "59.82801", "lng": "14.10721" },
    { "name": "Cervelleite", "lat": "29.80000", "lng": "-109.66667" },
    { "name": "Cesanite", "lat": "42.10000", "lng": "12.35511" },
    { "name": "Cesàrolite", "lat": "35.89056", "lng": "8.55278" },
    { "name": "Cesbronite", "lat": "29.80000", "lng": "-109.66667" },
    { "name": "Cesplumtantite", "lat": "-7.27750", "lng": "27.45083" },
    { "name": "Cetineite", "lat": "43.23198", "lng": "11.16830" },
    { "name": "Chlorophoenicite", "lat": "41.11472", "lng": "-74.58722" },
    { "name": "Chalcophanite", "lat": "41.08250", "lng": "-74.60611" },
    { "name": "Chalcomenite", "lat": "-33.02690", "lng": "-69.13930" },
    { "name": "Chloroxiphite", "lat": "51.23866", "lng": "-2.66760" },
    { "name": "Chabournéite", "lat": "44.81250", "lng": "6.32167" },
    { "name": "Chaidamuite", "lat": "37.32944", "lng": "95.56750" },
    { "name": "Chalcanthite", "lat": "-22.28944", "lng": "-68.90111" },
    { "name": "Chalcoalumite", "lat": "31.43417", "lng": "-109.90917" },
    { "name": "Chalcocyanite", "lat": "40.82167", "lng": "14.42625" },
    { "name": "Chernykhite", "lat": "44.53333", "lng": "67.41667" },
    { "name": "Chervetite", "lat": "-1.43333", "lng": "13.15000" },
    { "name": "Chessexite", "lat": "47.02111", "lng": "4.31694" },
    { "name": "Chesterite", "lat": "43.27220", "lng": "-72.63321" },
    { "name": "Chestermanite", "lat": "37.29306", "lng": "-119.13333" },
    { "name": "Chiluite", "lat": "27.10000", "lng": "119.60000" },
    { "name": "Chladniite", "lat": "31.91667", "lng": "-98.03333" },
    { "name": "Chloraluminite", "lat": "40.82167", "lng": "14.42625" },
    { "name": "Chlorellestadite", "lat": "42.54250", "lng": "44.29750" },
    { "name": "Chlormanganokalite", "lat": "40.82167", "lng": "14.42625" },
    { "name": "Chlorocalcite", "lat": "40.82167", "lng": "14.42625" },
    { "name": "Chloromagnesite", "lat": "40.82167", "lng": "14.42625" },
    { "name": "Choloalite", "lat": "29.80000", "lng": "-109.66667" },
    { "name": "Chondrodite", "lat": "60.29770", "lng": "22.29273" },
    { "name": "Chrisstanleyite", "lat": "50.46306", "lng": "-3.48083" },
    { "name": "Christite", "lat": "40.91167", "lng": "-116.32389" },
    { "name": "Chromferide", "lat": "51.15000", "lng": "60.13333" },
    { "name": "Chromite", "lat": "43.19888", "lng": "6.54505" },
    { "name": "Chudobaite", "lat": "-19.22704", "lng": "17.72764" },
    { "name": "Chursinite", "lat": "39.93333", "lng": "71.33333" },
    { "name": "Chvilevaite", "lat": "51.06722", "lng": "117.78417" },
    { "name": "Cianciulliite", "lat": "41.11583", "lng": "-74.58750" },
    { "name": "Clinoclase", "lat": "50.24180", "lng": "-5.18298" },
    { "name": "Clairite", "lat": "-25.10222", "lng": "30.70917" },
    { "name": "Claraite", "lat": "48.37963", "lng": "8.22895" },
    { "name": "Clarkeite", "lat": "35.93250", "lng": "-82.10416" },
    { "name": "Claudetite", "lat": "37.66957", "lng": "-7.49792" },
    { "name": "Clausthalite", "lat": "51.79102", "lng": "10.41018" },
    { "name": "Cliffordite", "lat": "29.80000", "lng": "-109.66667" },
    { "name": "Clinoatacamite", "lat": "-22.28944", "lng": "-68.90111" },
    { "name": "Clinobehoite", "lat": "57.11706", "lng": "61.41936" },
    { "name": "Clinobisvanite", "lat": "-24.49264", "lng": "116.16645" },
    { "name": "Clinochlore", "lat": "39.93056", "lng": "-75.55278" },
    { "name": "Clinoferrosilite", "lat": "44.82184", "lng": "-110.72787" },
    { "name": "Clinohedrite", "lat": "41.11583", "lng": "-74.58750" },
    { "name": "Clinohumite", "lat": "40.84028", "lng": "14.42000" },
    { "name": "Clinojimthompsonite", "lat": "43.27220", "lng": "-72.63321" },
    { "name": "Clinokurchatovite", "lat": "47.00194", "lng": "77.22389" },
    { "name": "Clinosafflorite", "lat": "47.39472", "lng": "-79.68639" },
    { "name": "Clinotobermorite", "lat": "34.76667", "lng": "133.43333" },
    { "name": "Clinoungemachite", "lat": "-22.28944", "lng": "-68.90111" },
    { "name": "Clinozoisite", "lat": "46.97917", "lng": "12.29528" },
    { "name": "Clintonite", "lat": "41.27056", "lng": "-74.45250" },
    { "name": "Cobaltomenite", "lat": "-33.02690", "lng": "-69.13930" },
    { "name": "Cobaltzippeite", "lat": "37.75222", "lng": "-110.29278" },
    { "name": "Cobaltaustinite", "lat": "-31.90167", "lng": "140.46056" },
    { "name": "Cochromite", "lat": "-25.67314", "lng": "31.16952" },
    { "name": "Cohenite", "lat": "49.33333", "lng": "19.48333" },
    { "name": "Colemanite", "lat": "36.37222", "lng": "-116.76667" },
    { "name": "Collinsite", "lat": "54.07889", "lng": "-125.75639" },
    { "name": "Colquiriite", "lat": "-17.39175", "lng": "-67.12538" },
    { "name": "Comancheite", "lat": "29.31806", "lng": "-103.69417" },
    { "name": "Combeite", "lat": "-1.48333", "lng": "29.23333" },
    { "name": "Comblainite", "lat": "-11.04861", "lng": "26.55083" },
    { "name": "Compreignacite", "lat": "45.98611", "lng": "1.30833" },
    { "name": "Connellite", "lat": "50.19310", "lng": "-5.47089" },
    { "name": "Coombsite", "lat": "-46.16306", "lng": "170.15181" },
    { "name": "Corderoite", "lat": "41.91943", "lng": "-117.81225" },
    { "name": "Corkite", "lat": "51.57389", "lng": "-9.12250" },
    { "name": "Cornetite", "lat": "-11.63444", "lng": "27.58083" },
    { "name": "Cornubite", "lat": "50.16778", "lng": "-5.38056" },
    { "name": "Cornwallite", "lat": "50.24180", "lng": "-5.18298" },
    { "name": "Corrensite", "lat": "48.99881", "lng": "8.84785" },
    { "name": "Cosalite", "lat": "24.40833", "lng": "-106.69167" },
    { "name": "Costibite", "lat": "-31.96514", "lng": "141.48131" },
    { "name": "Cotunnite", "lat": "40.82167", "lng": "14.42625" },
    { "name": "Coulsonite", "lat": "39.97389", "lng": "-118.16833" },
    { "name": "Cousinite", "lat": "-11.04861", "lng": "26.55083" },
    { "name": "Covellite", "lat": "40.82167", "lng": "14.42625" },
    { "name": "Cryptomelane", "lat": "31.71278", "lng": "-110.06694" },
    { "name": "Cualstibite", "lat": "48.37963", "lng": "8.22895" },
    { "name": "Cupalite", "lat": "62.65306", "lng": "174.50056" },
    { "name": "Cuprobismutite", "lat": "39.51833", "lng": "-105.85667" },
    { "name": "Cuprocopiapite", "lat": "-22.28944", "lng": "-68.90111" },
    { "name": "Cupropavonite", "lat": "37.93076", "lng": "-107.63199" },
    { "name": "Cuprorivaite", "lat": "40.82167", "lng": "14.42625" },
    { "name": "Cuprosklodowskite", "lat": "-11.01639", "lng": "25.22611" },
    { "name": "Cuprospinel", "lat": "49.88333", "lng": "-56.08333" },
    { "name": "Cuprostibite", "lat": "60.98222", "lng": "-45.91611" },
    { "name": "Curetonite", "lat": "41.09861", "lng": "-117.30250" },
    { "name": "Curienite", "lat": "-1.43333", "lng": "13.15000" },
    { "name": "Curite", "lat": "-11.04861", "lng": "26.55083" },
    { "name": "Cuspidine", "lat": "40.84028", "lng": "14.42000" },
    { "name": "Cuzticite", "lat": "29.80000", "lng": "-109.66667" },
    { "name": "Cyanochroite", "lat": "40.82167", "lng": "14.42625" },
    { "name": "Cyanotrichite", "lat": "44.73778", "lng": "21.70250" },
    { "name": "Cylindrite", "lat": "-18.38333", "lng": "-66.96667" },
    { "name": "Cymrite", "lat": "52.82073", "lng": "-4.63896" },
    { "name": "Cyrilovite", "lat": "49.41393", "lng": "16.04691" },
    { "name": "Chengdeite", "lat": "41.12702", "lng": "117.86370" },
    { "name": "Dalyite", "lat": "-7.95154", "lng": "-14.34274" },
    { "name": "Danbaite", "lat": "30.69861", "lng": "101.90972" },
    { "name": "Danburite", "lat": "41.39656", "lng": "-73.45444" },
    { "name": "Danielsite", "lat": "-22.89921", "lng": "118.13230" },
    { "name": "Darapiosite", "lat": "39.45035", "lng": "70.71634" },
    { "name": "Daubréelite", "lat": "28.70000", "lng": "-102.73333" },
    { "name": "Davyne", "lat": "40.84028", "lng": "14.42000" },
    { "name": "Dawsonite", "lat": "45.50417", "lng": "-73.57722" },
    { "name": "Deanesmithite", "lat": "36.38417", "lng": "-120.73667" },
    { "name": "Deerite", "lat": "39.61806", "lng": "-123.46306" },
    { "name": "Delhayelite", "lat": "-1.48333", "lng": "29.23333" },
    { "name": "Delindeite", "lat": "34.43825", "lng": "-92.86321" },
    { "name": "Dellaite", "lat": "56.69769", "lng": "-6.11341" },
    { "name": "Deloryite", "lat": "43.08139", "lng": "6.03222" },
    { "name": "Delrioite", "lat": "38.22969", "lng": "-108.75685" },
    { "name": "Delvauxite", "lat": "50.74583", "lng": "5.72667" },
    { "name": "Demesmaekerite", "lat": "-10.71083", "lng": "25.39889" },
    { "name": "Denningite", "lat": "29.80000", "lng": "-109.66667" },
    { "name": "Derbylite", "lat": "-20.32499", "lng": "-43.69855" },
    { "name": "Derriksite", "lat": "-10.71083", "lng": "25.39889" },
    { "name": "Dervillite", "lat": "48.21361", "lng": "7.15889" },
    { "name": "Desautelsite", "lat": "39.72750", "lng": "-76.13750" },
    { "name": "Despujolsite", "lat": "30.78333", "lng": "-6.85000" },
    { "name": "Dewindtite", "lat": "-11.04861", "lng": "26.55083" },
    { "name": "Diaboleite", "lat": "51.23866", "lng": "-2.66760" },
    { "name": "Diadochite", "lat": "50.58083", "lng": "11.39306" },
    { "name": "Diaoyudaoite", "lat": "25.43333", "lng": "123.36667" },
    { "name": "Diaspore", "lat": "56.54583", "lng": "60.40778" },
    { "name": "Dickite", "lat": "53.42309", "lng": "-4.39011" },
    { "name": "Dimorphite", "lat": "40.82806", "lng": "14.14167" },
    { "name": "Dioptase", "lat": "49.81639", "lng": "73.99500" },
    { "name": "Dittmarite", "lat": "-37.73694", "lng": "143.34778" },
    { "name": "Dixenite", "lat": "59.85538", "lng": "14.26480" },
    { "name": "Djurleite", "lat": "27.00000", "lng": "-107.00000" },
    { "name": "Dolerophanite", "lat": "40.82167", "lng": "14.42625" },
    { "name": "Donharrisite", "lat": "47.42545", "lng": "12.68091" },
    { "name": "Donpeacorite", "lat": "44.26393", "lng": "-75.40933" },
    { "name": "Dorallcharite", "lat": "41.14833", "lng": "21.95361" },
    { "name": "Douglasite", "lat": "51.95778", "lng": "11.38444" },
    { "name": "Downeyite", "lat": "40.69167", "lng": "-76.30000" },
    { "name": "Dozyite", "lat": "-4.07632", "lng": "137.13548" },
    { "name": "Dravite", "lat": "46.58111", "lng": "15.00417" },
    { "name": "Dresserite", "lat": "45.57222", "lng": "-73.61389" },
    { "name": "Danalite", "lat": "42.65556", "lng": "-70.62028" },
    { "name": "Dyscrasite", "lat": "48.31973", "lng": "8.20543" },
    { "name": "Eakerite", "lat": "35.21111", "lng": "-81.35556" },
    { "name": "Earlandite", "lat": "-71.36667", "lng": "-16.56667" },
    { "name": "Earlshannonite", "lat": "35.21111", "lng": "-81.35556" },
    { "name": "Ecandrewsite", "lat": "-32.08333", "lng": "141.55000" },
    { "name": "Eclarite", "lat": "47.24368", "lng": "12.41047" },
    { "name": "Edenharterite", "lat": "46.36500", "lng": "8.22111" },
    { "name": "Edenite", "lat": "41.27583", "lng": "-74.41139" },
    { "name": "Edgarbaileyite", "lat": "36.38417", "lng": "-120.73667" },
    { "name": "Edoylerite", "lat": "36.38417", "lng": "-120.73667" },
    { "name": "Eggletonite", "lat": "34.69083", "lng": "-92.28806" },
    { "name": "Ehrleite", "lat": "43.71556", "lng": "-103.66944" },
    { "name": "Eifelite", "lat": "50.35167", "lng": "7.23389" },
    { "name": "Ekanite", "lat": "6.84856", "lng": "80.26001" },
    { "name": "Ekaterinite", "lat": "56.54768", "lng": "104.12695" },
    { "name": "Elbaite", "lat": "42.75100", "lng": "10.20500" },
    { "name": "Ellisite", "lat": "40.91167", "lng": "-116.32389" },
    { "name": "Elpasolite", "lat": "38.74721", "lng": "-104.91164" },
    { "name": "Elpidite", "lat": "61.03306", "lng": "-45.37778" },
    { "name": "Embreyite", "lat": "56.90000", "lng": "60.78333" },
    { "name": "Emmonsite", "lat": "31.71278", "lng": "-110.06694" },
    { "name": "Empressite", "lat": "38.28333", "lng": "-106.13333" },
    { "name": "Englishite", "lat": "40.27389", "lng": "-112.15472" },
    { "name": "Eosphorite", "lat": "41.26778", "lng": "-73.43917" },
    { "name": "Ephesite", "lat": "37.91667", "lng": "27.31667" },
    { "name": "Epididymite", "lat": "61.03306", "lng": "-45.37778" },
    { "name": "Epidote", "lat": "45.171547", "lng": "5.722387" },
    { "name": "Epistolite", "lat": "60.95389", "lng": "-45.85111" },
    { "name": "Epsomite", "lat": "51.32734", "lng": "-0.29146" },
    { "name": "Erdite", "lat": "41.13333", "lng": "-123.85889" },
    { "name": "Ericaite", "lat": "52.49148", "lng": "10.10990" },
    { "name": "Ericssonite", "lat": "59.85538", "lng": "14.26480" },
    { "name": "Eriochalcite", "lat": "40.82167", "lng": "14.42625" },
    { "name": "Erlichmanite", "lat": "40.94361", "lng": "-123.63056" },
    { "name": "Ernienickelite", "lat": "-30.24001", "lng": "120.99570" },
    { "name": "Erniggliite", "lat": "46.36500", "lng": "8.22111" },
    { "name": "Ernstite", "lat": "-21.84931", "lng": "15.55352" },
    { "name": "Ertixiite", "lat": "47.20668", "lng": "89.81641" },
    { "name": "Erythrite", "lat": "50.57889", "lng": "12.61611" },
    { "name": "Erythrosiderite", "lat": "40.82167", "lng": "14.42625" },
    { "name": "Eskebornite", "lat": "51.63444", "lng": "11.31778" },
    { "name": "Eskimoite", "lat": "61.20611", "lng": "-48.17556" },
    { "name": "Esperite", "lat": "41.12028", "lng": "-74.58278" },
    { "name": "Eucairite", "lat": "58.16046", "lng": "16.41987" },
    { "name": "Euchlorine", "lat": "40.82167", "lng": "14.42625" },
    { "name": "Euchroite", "lat": "48.74361", "lng": "19.43611" },
    { "name": "Euclase", "lat": "20.3856", "lng": " 43.5036" },
    { "name": "Eucryptite", "lat": "41.26778", "lng": "-73.43917" },
    { "name": "Eudialyte", "lat": "60.87586", "lng": "-45.87366" },
    { "name": "Eugenite", "lat": "51.55490", "lng": "16.04269" },
    { "name": "Evansite", "lat": "48.62182", "lng": "20.11341" },
    { "name": "Eveite", "lat": "59.85538", "lng": "14.26480" },
    { "name": "Eylettersite", "lat": "-3.08333", "lng": "27.13333" },
    { "name": "Ezcurrite", "lat": "-25.26861", "lng": "-67.05750" },
    { "name": "Eztlite", "lat": "29.80000", "lng": "-109.66667" },
    { "name": "Faheyite", "lat": "-18.90083", "lng": "-41.48444" },
    { "name": "Fahleite", "lat": "-19.22704", "lng": "17.72764" },
    { "name": "Fairbankite", "lat": "31.70250", "lng": "-110.06194" },
    { "name": "Fairfieldite", "lat": "41.26778", "lng": "-73.43917" },
    { "name": "Falcondoite", "lat": "18.88694", "lng": "-70.31333" },
    { "name": "Falkmanite", "lat": "49.96000", "lng": "12.33167" },
    { "name": "Famatinite", "lat": "-29.01444", "lng": "-67.79944" },
    { "name": "Fedorite", "lat": "66.58333", "lng": "34.73333" },
    { "name": "Fedotovite", "lat": "55.83333", "lng": "160.33333" },
    { "name": "Feitknechtite", "lat": "41.11583", "lng": "-74.58750" },
    { "name": "Fenaksite", "lat": "67.64059", "lng": "33.74245" },
    { "name": "Ferberite", "lat": "37.29167", "lng": "-1.75306" },
    { "name": "Ferchromide", "lat": "51.15000", "lng": "60.13333" },
    { "name": "Fernandinite", "lat": "-10.86096", "lng": "-76.57216" },
    { "name": "Ferrotychite", "lat": "67.74722", "lng": "34.13333" },
    { "name": "Ferrowodginite", "lat": "60.77046", "lng": "23.59429" },
    { "name": "Ferrowyllieite", "lat": "43.78250", "lng": "-103.56917" },
    { "name": "Ferruccite", "lat": "40.82167", "lng": "14.42625" },
    { "name": "Feruvite", "lat": "-36.43333", "lng": "175.76667" },
    { "name": "Fettelite", "lat": "49.79722", "lng": "8.69389" },
    { "name": "Fichtelite", "lat": "50.15313", "lng": "12.18012" },
    { "name": "Filipstadite", "lat": "59.85538", "lng": "14.26480" },
    { "name": "Fillowite", "lat": "41.26778", "lng": "-73.43917" },
    { "name": "Fingerite", "lat": "13.81366", "lng": "-89.63264" },
    { "name": "Finnemanite", "lat": "59.85538", "lng": "14.26480" },
    { "name": "Fischesserite", "lat": "49.54944", "lng": "14.25333" },
    { "name": "Fizélyite", "lat": "47.70639", "lng": "23.68417" },
    { "name": "Flagstaffite", "lat": "35.19722", "lng": "-111.65000" },
    { "name": "Fleischerite", "lat": "-19.22704", "lng": "17.72764" },
    { "name": "Fletcherite", "lat": "37.46639", "lng": "-91.10861" },
    { "name": "Flinkite", "lat": "59.78528", "lng": "14.31389" },
    { "name": "Fülöppite", "lat": "47.67672", "lng": "23.58055" },
    { "name": "Florensovite", "lat": "51.63333", "lng": "103.70000" },
    { "name": "Fluckite", "lat": "48.21361", "lng": "7.15889" },
    { "name": "Fluellite", "lat": "50.36139", "lng": "-4.86556" },
    { "name": "Fluoborite", "lat": "60.11107", "lng": "15.99537" },
    { "name": "Fluorapatite", "lat": "50.64083", "lng": "12.97833" },
    { "name": "Foggite", "lat": "43.75130", "lng": "-71.88956" },
    { "name": "Fontanite", "lat": "43.68250", "lng": "3.34944" },
    { "name": "Forsterite", "lat": "40.84028", "lng": "14.42000" },
    { "name": "Fourmarierite", "lat": "-11.04861", "lng": "26.55083" },
    { "name": "Francevillite", "lat": "-1.43333", "lng": "13.15000" },
    { "name": "Franciscanite", "lat": "37.33639", "lng": "-121.49167" },
    { "name": "Francisite", "lat": "-32.74472", "lng": "137.13944" },
    { "name": "Franckeite", "lat": "-20.95000", "lng": "-66.30000" },
    { "name": "Francoanellite", "lat": "40.87556", "lng": "17.14833" },
    { "name": "Franconite", "lat": "45.57222", "lng": "-73.61389" },
    { "name": "Frankdicksonite", "lat": "40.91167", "lng": "-116.32389" },
    { "name": "Franklinfurnaceite", "lat": "41.11583", "lng": "-74.58750" },
    { "name": "Franklinphilite", "lat": "41.11472", "lng": "-74.58722" },
    { "name": "Fransoletite", "lat": "43.71556", "lng": "-103.66944" },
    { "name": "Franzinite", "lat": "42.64250", "lng": "11.73028" },
    { "name": "Freboldite", "lat": "51.89334", "lng": "10.26889" },
    { "name": "Fredrikssonite", "lat": "59.85538", "lng": "14.26480" },
    { "name": "Freedite", "lat": "59.85538", "lng": "14.26480" },
    { "name": "Freieslebenite", "lat": "50.85778", "lng": "13.29889" },
    { "name": "Fresnoite", "lat": "36.91667", "lng": "-119.24500" },
    { "name": "Freudenbergite", "lat": "49.46944", "lng": "9.04472" },
    { "name": "Friedrichite", "lat": "47.19944", "lng": "12.36389" },
    { "name": "Frohbergite", "lat": "48.30833", "lng": "-79.32722" },
    { "name": "Frolovite", "lat": "59.78333", "lng": "60.50000" },
    { "name": "Frondelite", "lat": "-18.90083", "lng": "-41.48444" },
    { "name": "Froodite", "lat": "46.50000", "lng": "-80.96667" },
    { "name": "Fukalite", "lat": "34.76667", "lng": "133.43333" },
    { "name": "Fukuchilite", "lat": "40.16694", "lng": "140.83278" },
    { "name": "Furutobeite", "lat": "40.40201", "lng": "140.69663" },
    { "name": "Faustite", "lat": "40.80056", "lng": "-116.23750" },
    { "name": "Gabrielsonite", "lat": "59.85538", "lng": "14.26480" },
    { "name": "Gageite", "lat": "41.11583", "lng": "-74.58750" },
    { "name": "Gahnite", "lat": "60.59806", "lng": "15.61306" },
    { "name": "Gaidonnayite", "lat": "45.56278", "lng": "-73.14167" },
    { "name": "Gainesite", "lat": "44.54500", "lng": "-70.72222" },
    { "name": "Gaitite", "lat": "-19.22704", "lng": "17.72764" },
    { "name": "Galaxite", "lat": "36.55000", "lng": "-81.09583" },
    { "name": "Galeite", "lat": "35.73833", "lng": "-117.37389" },
    { "name": "Galenobismutite", "lat": "59.83358", "lng": "14.12440" },
    { "name": "Gamagarite", "lat": "-28.06806", "lng": "23.04083" },
    { "name": "Ganomalite", "lat": "59.85538", "lng": "14.26480" },
    { "name": "Ganophyllite", "lat": "59.78528", "lng": "14.31389" },
    { "name": "Garavellite", "lat": "44.04594", "lng": "10.15030" },
    { "name": "Garrelsite", "lat": "40.01960", "lng": "-109.65480" },
    { "name": "Gartrellite", "lat": "-23.38640", "lng": "117.03361" },
    { "name": "Garyansellite", "lat": "68.54000", "lng": "-136.79960" },
    { "name": "Gatumbaite", "lat": "-1.92139", "lng": "29.65417" },
    { "name": "Gaudefroyite", "lat": "30.78333", "lng": "-6.85000" },
    { "name": "Gaultite", "lat": "45.56278", "lng": "-73.14167" },
    { "name": "Gaylussite", "lat": "8.50402", "lng": "-71.39957" },
    { "name": "Gearksutite", "lat": "61.20611", "lng": "-48.17556" },
    { "name": "Gebhardite", "lat": "-19.22704", "lng": "17.72764" },
    { "name": "Giniite", "lat": "-21.87831", "lng": "15.34515" },
    { "name": "Ginorite", "lat": "43.16744", "lng": "10.86479" },
    { "name": "Girvasite", "lat": "67.55970", "lng": "30.42584" },
    { "name": "Gittinsite", "lat": "46.80278", "lng": "-78.49472" },
    { "name": "Gladite", "lat": "57.71944", "lng": "16.42500" },
    { "name": "Glaucocerinite", "lat": "37.72462", "lng": "24.01338" },
    { "name": "Glaucochroite", "lat": "41.11583", "lng": "-74.58750" },
    { "name": "Glucine", "lat": "56.23972", "lng": "61.38000" },
    { "name": "Gobbinsite", "lat": "54.80028", "lng": "-5.69194" },
    { "name": "Goedkenite", "lat": "43.75130", "lng": "-71.88956" },
    { "name": "Goethite", "lat": "50.77939", "lng": "7.93002" },
    { "name": "Goldfieldite", "lat": "37.71694", "lng": "-117.22361" },
    { "name": "Goldichite", "lat": "39.02780", "lng": "-110.71600" },
    { "name": "Gonyerite", "lat": "59.85538", "lng": "14.26480" },
    { "name": "Goosecreekite", "lat": "39.06861", "lng": "-77.51611" },
    { "name": "Gordonite", "lat": "40.27389", "lng": "-112.15472" },
    { "name": "Gortdrumite", "lat": "52.52194", "lng": "-8.18694" },
    { "name": "Goslarite", "lat": "51.88995", "lng": "10.42098" },
    { "name": "Goudeyite", "lat": "40.66917", "lng": "-118.47000" },
    { "name": "Gowerite", "lat": "36.33500", "lng": "-116.70278" },
    { "name": "Graemite", "lat": "31.41806", "lng": "-109.90667" },
    { "name": "Grandidierite", "lat": "-25.19943", "lng": "46.63243" },
    { "name": "Grandreefite", "lat": "32.88250", "lng": "-110.31750" },
    { "name": "Gravegliaite", "lat": "44.35972", "lng": "9.45000" },
    { "name": "Grayite", "lat": "-17.40000", "lng": "32.50000" },
    { "name": "Greenockite", "lat": "55.91545", "lng": "-4.51479" },
    { "name": "Görgeyite", "lat": "47.66667", "lng": "13.63333" },
    { "name": "Griceite", "lat": "45.56278", "lng": "-73.14167" },
    { "name": "Grimaldiite", "lat": "5.26667", "lng": "-59.83333" },
    { "name": "Grischunite", "lat": "46.55333", "lng": "9.64694" },
    { "name": "Grumantite", "lat": "67.88086", "lng": "34.44220" },
    { "name": "Grunerite", "lat": "43.26599", "lng": "6.35654" },
    { "name": "Gruzdevite", "lat": "40.13000", "lng": "72.20583" },
    { "name": "Götzenite", "lat": "-1.48333", "lng": "29.23333" },
    { "name": "Guarinoite", "lat": "43.08139", "lng": "6.03222" },
    { "name": "Gudmundite", "lat": "59.93570", "lng": "16.60037" },
    { "name": "Guérinite", "lat": "50.57889", "lng": "12.61611" },
    { "name": "Guettardite", "lat": "44.50222", "lng": "-77.46639" },
    { "name": "Guildite", "lat": "34.75000", "lng": "-112.12222" },
    { "name": "Guilleminite", "lat": "-10.71083", "lng": "25.39889" },
    { "name": "Gustavite", "lat": "61.20611", "lng": "-48.17556" },
    { "name": "Guyanaite", "lat": "5.26667", "lng": "-59.83333" },
    { "name": "Gyrolite", "lat": "57.50711", "lng": "-6.18308" },
    { "name": "Hallimondite", "lat": "48.33992", "lng": "7.96855" },
    { "name": "Halurgite", "lat": "47.81667", "lng": "59.61667" },
    { "name": "Hammarite", "lat": "57.71944", "lng": "16.42500" },
    { "name": "Hanawaltite", "lat": "36.38417", "lng": "-120.73667" },
    { "name": "Hanksite", "lat": "35.73833", "lng": "-117.37389" },
    { "name": "Hannayite", "lat": "-37.73694", "lng": "143.34778" },
    { "name": "Hardystonite", "lat": "41.11583", "lng": "-74.58750" },
    { "name": "Harkerite", "lat": "57.20088", "lng": "-5.99874" },
    { "name": "Harrisonite", "lat": "71.90000", "lng": "-95.38333" },
    { "name": "Harstigite", "lat": "59.78528", "lng": "14.31389" },
    { "name": "Hatchite", "lat": "46.36500", "lng": "8.22111" },
    { "name": "Hauchecornite", "lat": "50.78859", "lng": "7.80591" },
    { "name": "Hauckite", "lat": "41.08361", "lng": "-74.60472" },
    { "name": "Hauerite", "lat": "48.47972", "lng": "19.25472" },
    { "name": "Hausmannite", "lat": "50.66000", "lng": "10.94417" },
    { "name": "Hawleyite", "lat": "63.91667", "lng": "-135.41667" },
    { "name": "Hawthorneite", "lat": "-28.76816", "lng": "24.79206" },
    { "name": "Haycockite", "lat": "-24.57426", "lng": "30.14183" },
    { "name": "Haynesite", "lat": "37.41107", "lng": "-109.18704" },
    { "name": "Heazlewoodite", "lat": "-41.45000", "lng": "145.30000" },
    { "name": "Hammarite", "lat": "57.71944", "lng": "16.42500" },
    { "name": "Hanawaltite", "lat": "36.38417", "lng": "-120.73667" },
    { "name": "Hanksite", "lat": "35.73833", "lng": "-117.37389" },
    { "name": "Hannayite", "lat": "-37.73694", "lng": "143.34778" },
    { "name": "Hardystonite", "lat": "41.11583", "lng": "-74.58750" },
    { "name": "Harkerite", "lat": "57.20088", "lng": "-5.99874" },
    { "name": "Harrisonite", "lat": "71.90000", "lng": "-95.38333" },
    { "name": "Harstigite", "lat": "59.78528", "lng": "14.31389" },
    { "name": "Hatchite", "lat": "46.36500", "lng": "8.22111" },
    { "name": "Hauchecornite", "lat": "50.78859", "lng": "7.80591" },
    { "name": "Hauckite", "lat": "41.08361", "lng": "-74.60472" },
    { "name": "Hauerite", "lat": "48.47972", "lng": "19.25472" },
    { "name": "Hausmannite", "lat": "50.66000", "lng": "10.94417" },
    { "name": "Hawleyite", "lat": "63.91667", "lng": "-135.41667" },
    { "name": "Hawthorneite", "lat": "-28.76816", "lng": "24.79206" },
    { "name": "Haycockite", "lat": "-24.57426", "lng": "30.14183" },
    { "name": "Haynesite", "lat": "37.41107", "lng": "-109.18704" },
    { "name": "Heazlewoodite", "lat": "-41.45000", "lng": "145.30000" },
    { "name": "Hedenbergite", "lat": "58.63895", "lng": "16.83396" },
    { "name": "Hedleyite", "lat": "49.33167", "lng": "-120.01361" },
    { "name": "Hedyphane", "lat": "59.85538", "lng": "14.26480" },
    { "name": "Heideite", "lat": "26.75000", "lng": "82.70000" },
    { "name": "Hejtmanite", "lat": "-14.08306", "lng": "29.83306" },
    { "name": "Hellyerite", "lat": "-41.45000", "lng": "145.30000" },
    { "name": "Helmutwinklerite", "lat": "-19.22704", "lng": "17.72764" },
    { "name": "Hematolite", "lat": "59.81667", "lng": "14.10000" },
    { "name": "Hematophanite", "lat": "59.82801", "lng": "14.10721" },
    { "name": "Hemihedrite", "lat": "33.00694", "lng": "-110.95750" },
    { "name": "Hemimorphite", "lat": "46.48125", "lng": "22.58230" },
    { "name": "Hemloite", "lat": "48.69528", "lng": "-85.91944" },
    { "name": "Hypercinnabar", "lat": "37.88167", "lng": "-121.91278" },
    { "name": "Hannebachite", "lat": "50.44833", "lng": "7.13917" },
    { "name": "Henryite", "lat": "31.42468", "lng": "-109.89026" },
    { "name": "Hopeite", "lat": "50.71434", "lng": "6.00913" },
    { "name": "Ianthinite", "lat": "-11.04861", "lng": "26.55083" },
    { "name": "Idrialite", "lat": "46.00306", "lng": "14.02722" },
    { "name": "Ikaite", "lat": "61.20083", "lng": "-48.01528" },
    { "name": "Ikunolite", "lat": "35.16667", "lng": "134.82500" },
    { "name": "Ilvaite", "lat": "42.81356", "lng": "10.42953" },
    { "name": "Imandrite", "lat": "67.66556", "lng": "33.85917" },
    { "name": "Imhofite", "lat": "46.36500", "lng": "8.22111" },
    { "name": "Imiterite", "lat": "31.34556", "lng": "-5.73194" },
    { "name": "Indialite", "lat": "23.76667", "lng": "85.58333" },
    { "name": "Indigirite", "lat": "64.28000", "lng": "142.77000" },
    { "name": "Indite", "lat": "49.15000", "lng": "131.41667" },
    { "name": "Inesite", "lat": "50.76034", "lng": "8.37245" },
    { "name": "Ingersonite", "lat": "59.85538", "lng": "14.26480" },
    { "name": "Insizwaite", "lat": "-30.78353", "lng": "29.30856" },
    { "name": "Inyoite", "lat": "36.37944", "lng": "-116.76778" },
    { "name": "Iowaite", "lat": "43.24364", "lng": "-95.93515" },
    { "name": "Iquiqueite", "lat": "-20.24250", "lng": "-70.13504" },
    { "name": "Irarsite", "lat": "-24.78264", "lng": "30.12098" },
    { "name": "Irhtemite", "lat": "30.48904", "lng": "-6.66329" },
    { "name": "Irtyshite", "lat": "49.53806", "lng": "83.00639" },
    { "name": "Isocubanite", "lat": "20.83330", "lng": "-109.08330" },
    { "name": "Isokite", "lat": "-10.16667", "lng": "32.86667" },
    { "name": "Itoite", "lat": "-19.22704", "lng": "17.72764" },
    { "name": "Ixiolite", "lat": "60.14310", "lng": "22.59973" },
    { "name": "Jacobsite", "lat": "59.82801", "lng": "14.10721" },
    { "name": "Jadeite", "lat": "16.871311", "lng": "96.199379" },
    { "name": "Jaffeite", "lat": "-19.78333", "lng": "18.01667" },
    { "name": "Jagoite", "lat": "59.85538", "lng": "14.26480" },
    { "name": "Jamesite", "lat": "-19.22704", "lng": "17.72764" },
    { "name": "Janggunite", "lat": "36.85000", "lng": "129.06667" },
    { "name": "Janhaugite", "lat": "60.18639", "lng": "10.61639" },
    { "name": "Jankovićite", "lat": "41.15963", "lng": "21.95288" },
    { "name": "Jarlite", "lat": "61.20611", "lng": "-48.17556" },
    { "name": "Jarosewichite", "lat": "41.11472", "lng": "-74.58722" },
    { "name": "Jaskólskiite", "lat": "58.88519", "lng": "15.04216" },
    { "name": "Jasmundite", "lat": "50.34607", "lng": "7.22333" },
    { "name": "Jeanbandyite", "lat": "-18.42400", "lng": "-66.59170" },
    { "name": "Jeffreyite", "lat": "45.76972", "lng": "-71.95000" },
    { "name": "Jennite", "lat": "34.02361", "lng": "-117.38389" },
    { "name": "Jensenite", "lat": "39.94361", "lng": "-112.12222" },
    { "name": "Jeppeite", "lat": "-18.30949", "lng": "124.85721" },
    { "name": "Jerrygibbsite", "lat": "41.11583", "lng": "-74.58750" },
    { "name": "Jervisite", "lat": "45.86888", "lng": "8.44429" },
    { "name": "Jianshuiite", "lat": "23.61472", "lng": "103.00833" },
    { "name": "Jimboite", "lat": "36.60417", "lng": "139.63333" },
    { "name": "Jimthompsonite", "lat": "43.27220", "lng": "-72.63321" },
    { "name": "Jinshajiangite", "lat": "26.61988", "lng": "101.97723" },
    { "name": "Joesmithite", "lat": "59.85538", "lng": "14.26480" },
    { "name": "Johannite", "lat": "50.37114", "lng": "12.87615" },
    { "name": "Johillerite", "lat": "-19.22704", "lng": "17.72764" },
    { "name": "Johnbaumite", "lat": "41.11583", "lng": "-74.58750" },
    { "name": "Johninnesite", "lat": "-19.78333", "lng": "18.01667" },
    { "name": "Johnsomervilleite", "lat": "57.06600", "lng": "-5.28883" },
    { "name": "Jôkokuite", "lat": "41.66667", "lng": "140.05278" },
    { "name": "Joliotite", "lat": "47.83889", "lng": "8.04889" },
    { "name": "Jolliffeite", "lat": "59.46806", "lng": "-108.41111" },
    { "name": "Jonesite", "lat": "36.33611", "lng": "-120.60528" },
    { "name": "Jordanite", "lat": "46.36500", "lng": "8.22111" },
    { "name": "Jordisite", "lat": "50.85778", "lng": "13.29889" },
    { "name": "Jouravskite", "lat": "30.78333", "lng": "-6.85000" },
    { "name": "Juanite", "lat": "38.25319", "lng": "-107.05328" },
    { "name": "Julienite", "lat": "-10.96778", "lng": "26.59028" },
    { "name": "Jungite", "lat": "49.65028", "lng": "12.45972" },
    { "name": "Junitoite", "lat": "33.05833", "lng": "-110.74583" },
    { "name": "Junoite", "lat": "-19.70235", "lng": "134.24493" },
    { "name": "Kaatialaite", "lat": "62.67944", "lng": "23.49056" },
    { "name": "Kadyrelite", "lat": "51.53333", "lng": "92.80000" },
    { "name": "Kawazulite", "lat": "34.69944", "lng": "138.92222" },
    { "name": "Kazakhstanite", "lat": "44.53333", "lng": "67.41667" },
    { "name": "Kazakovite", "lat": "67.88333", "lng": "34.63333" },
    { "name": "Keckite", "lat": "49.65028", "lng": "12.45972" },
    { "name": "Kegelite", "lat": "-19.22704", "lng": "17.72764" },
    { "name": "Keldyshite", "lat": "67.85000", "lng": "34.53333" },
    { "name": "Kellyite", "lat": "36.55000", "lng": "-81.09583" },
    { "name": "Kemmlitzite", "lat": "51.22527", "lng": "12.99103" },
    { "name": "Kempite", "lat": "37.39778", "lng": "-121.79861" },
    { "name": "Kermesite", "lat": "50.93667", "lng": "13.20861" },
    { "name": "Kettnerite", "lat": "50.69409", "lng": "13.86883" },
    { "name": "Keyite", "lat": "-19.22704", "lng": "17.72764" },
    { "name": "Keystoneite", "lat": "39.98861", "lng": "-105.36778" },
    { "name": "Khademite", "lat": "32.53750", "lng": "55.25556" },
    { "name": "Khanneshite", "lat": "30.46667", "lng": "63.58333" },
    { "name": "Kharaelakhite", "lat": "69.53600", "lng": "88.46220" },
    { "name": "Khatyrkite", "lat": "62.65306", "lng": "174.50056" },
    { "name": "Khinite", "lat": "31.70306", "lng": "-110.07333" },
    { "name": "Kidwellite", "lat": "34.40455", "lng": "-93.70964" },
    { "name": "Kieftite", "lat": "58.63865", "lng": "16.88516" },
    { "name": "Kilchoanite", "lat": "56.69769", "lng": "-6.11341" },
    { "name": "Killalaite", "lat": "54.22972", "lng": "-9.09222" },
    { "name": "Kimrobinsonite", "lat": "-32.18741", "lng": "119.79489" },
    { "name": "Kimzeyite", "lat": "34.45000", "lng": "-92.83333" },
    { "name": "Kingite", "lat": "-33.84639", "lng": "139.12611" },
    { "name": "Kingsmountite", "lat": "35.21111", "lng": "-81.35556" },
    { "name": "Kinichilite", "lat": "34.69944", "lng": "138.92222" },
    { "name": "Kipushite", "lat": "-11.76944", "lng": "27.23556" },
    { "name": "Kirkiite", "lat": "40.98333", "lng": "25.78333" },
    { "name": "Kirschsteinite", "lat": "-1.48333", "lng": "29.23333" },
    { "name": "Kitkaite", "lat": "66.25458", "lng": "29.42801" },
    { "name": "Kittatinnyite", "lat": "41.11472", "lng": "-74.58750" },
    { "name": "Kladnoite", "lat": "50.16274", "lng": "14.02975" },
    { "name": "Kleemanite", "lat": "-32.74472", "lng": "137.13944" },
    { "name": "Klockmannite", "lat": "-28.91889", "lng": "-68.68389" },
    { "name": "Klyuchevskite", "lat": "55.83333", "lng": "160.33333" },
    { "name": "Koashvite", "lat": "67.61667", "lng": "34.00000" },
    { "name": "Kobellite", "lat": "58.88519", "lng": "15.04216" },
    { "name": "Kochkarite", "lat": "54.38314", "lng": "60.81602" },
    { "name": "Koechlinite", "lat": "50.57889", "lng": "12.61611" },
    { "name": "Kogarkoite", "lat": "67.85000", "lng": "34.53333" },
    { "name": "Kolbeckite", "lat": "50.82722", "lng": "13.64611" },
    { "name": "Kolfanite", "lat": "68.38361", "lng": "35.86361" },
    { "name": "Kolicite", "lat": "41.08361", "lng": "-74.60472" },
    { "name": "Kolovratite", "lat": "40.17472", "lng": "72.09972" },
    { "name": "Kolwezite", "lat": "-10.71083", "lng": "25.39889" },
    { "name": "Kombatite", "lat": "-19.78333", "lng": "18.01667" },
    { "name": "Konderite", "lat": "57.58556", "lng": "134.65722" },
    { "name": "Koninckite", "lat": "50.71706", "lng": "5.69521" },
    { "name": "Konyaite", "lat": "37.62529", "lng": "34.28335" },
    { "name": "Koritnigite", "lat": "-19.22704", "lng": "17.72764" },
    { "name": "Kornerupine", "lat": "63.08722", "lng": "-50.67806" },
    { "name": "Korshunovskite", "lat": "56.54768", "lng": "104.12695" },
    { "name": "Korzhinskite", "lat": "59.78333", "lng": "60.50000" },
    { "name": "Kosmochlor", "lat": "19.56667", "lng": "-99.56667" },
    { "name": "Kostovite", "lat": "42.66931", "lng": "24.08326" },
    { "name": "Kostylevite", "lat": "67.66556", "lng": "33.85917" },
    { "name": "Köttigite", "lat": "50.57889", "lng": "12.61611" },
    { "name": "Kotulskite", "lat": "67.92250", "lng": "32.83889" },
    { "name": "Kovdorskite", "lat": "67.55970", "lng": "30.42584" },
    { "name": "Kraisslite", "lat": "41.08361", "lng": "-74.60472" },
    { "name": "Kratochvílite", "lat": "50.16274", "lng": "14.02975" },
    { "name": "Krausite", "lat": "34.95000", "lng": "-116.81667" },
    { "name": "Krauskopfite", "lat": "37.08333", "lng": "-119.27222" },
    { "name": "Krautite", "lat": "45.97389", "lng": "23.04000" },
    { "name": "Kremersite", "lat": "40.82167", "lng": "14.42625" },
    { "name": "Krennerite", "lat": "45.97389", "lng": "23.04000" },
    { "name": "Kribergite", "lat": "65.06572", "lng": "18.56416" },
    { "name": "Krinovite", "lat": "35.02806", "lng": "-111.02250" },
    { "name": "Kröhnkite", "lat": "-22.28944", "lng": "-68.90111" },
    { "name": "Krupkaite", "lat": "50.69409", "lng": "13.86883" },
    { "name": "Ktenasite", "lat": "37.72800", "lng": "24.01000" },
    { "name": "Kukisvumite", "lat": "67.66667", "lng": "33.71667" },
    { "name": "Kulanite", "lat": "68.54000", "lng": "-136.79960" },
    { "name": "Kullerudite", "lat": "66.25458", "lng": "29.42801" },
    { "name": "Kuramite", "lat": "40.94167", "lng": "70.11667" },
    { "name": "Kuranakhite", "lat": "58.75000", "lng": "125.48333" },
    { "name": "Kurilite", "lat": "44.39417", "lng": "146.03722" },
    { "name": "Kurumsakite", "lat": "44.33333", "lng": "67.63333" },
    { "name": "Kusachiite", "lat": "34.76667", "lng": "133.43333" },
    { "name": "Krausite", "lat": "34.95000", "lng": "-116.81667" },
    { "name": "Krauskopfite", "lat": "37.08333", "lng": "-119.27222" },
    { "name": "Krautite", "lat": "45.97389", "lng": "23.04000" },
    { "name": "Kremersite", "lat": "40.82167", "lng": "14.42625" },
    { "name": "Krennerite", "lat": "45.97389", "lng": "23.04000" },
    { "name": "Kribergite", "lat": "65.06572", "lng": "18.56416" },
    { "name": "Krinovite", "lat": "35.02806", "lng": "-111.02250" },
    { "name": "Kröhnkite", "lat": "-22.28944", "lng": "-68.90111" },
    { "name": "Krupkaite", "lat": "50.69409", "lng": "13.86883" },
    { "name": "Ktenasite", "lat": "37.72800", "lng": "24.01000" },
    { "name": "Kukisvumite", "lat": "67.66667", "lng": "33.71667" },
    { "name": "Kulanite", "lat": "68.54000", "lng": "-136.79960" },
    { "name": "Kullerudite", "lat": "66.25458", "lng": "29.42801" },
    { "name": "Kuramite", "lat": "40.94167", "lng": "70.11667" },
    { "name": "Kuranakhite", "lat": "58.75000", "lng": "125.48333" },
    { "name": "Kurilite", "lat": "44.39417", "lng": "146.03722" },
    { "name": "Kurumsakite", "lat": "44.33333", "lng": "67.63333" },
    { "name": "Kusachiite", "lat": "34.76667", "lng": "133.43333" },
    { "name": "Kuzminite", "lat": "51.53333", "lng": "92.80000" },
    { "name": "Koenenite", "lat": "51.66083", "lng": "9.74944" },
    { "name": "Kinoshitalite", "lat": "40.07333", "lng": "141.80833" },
    { "name": "Lacroixite", "lat": "50.64861", "lng": "12.93111" },
    { "name": "Laffittite", "lat": "44.81250", "lng": "6.32167" },
    { "name": "Laitakarite", "lat": "60.22900", "lng": "23.53900" },
    { "name": "Lammerite", "lat": "-17.38083", "lng": "-67.77500" },
    { "name": "Lanarkite", "lat": "55.42333", "lng": "-3.76750" },
    { "name": "Landauite", "lat": "56.23333", "lng": "110.76667" },
    { "name": "Landesite", "lat": "44.07167", "lng": "-70.29861" },
    { "name": "Långbanite", "lat": "59.85538", "lng": "14.26480" },
    { "name": "Langbeinite", "lat": "51.96167", "lng": "10.94028" },
    { "name": "Langisite", "lat": "47.58111", "lng": "-79.58056" },
    { "name": "Lannonite", "lat": "33.23730", "lng": "-108.71983" },
    { "name": "Lansfordite", "lat": "40.86250", "lng": "-75.81250" },
    { "name": "Laphamite", "lat": "40.76667", "lng": "-76.55833" },
    { "name": "Lapieite", "lat": "61.87500", "lng": "-132.83333" },
    { "name": "Larderellite", "lat": "43.23333", "lng": "10.86667" },
    { "name": "Larnite", "lat": "54.91050", "lng": "-5.91538" },
    { "name": "Larosite", "lat": "47.37333", "lng": "-79.66417" },
    { "name": "Larsenite", "lat": "41.11583", "lng": "-74.58750" },
    { "name": "Latiumite", "lat": "41.73416", "lng": "12.66670" },
    { "name": "Latrappite", "lat": "45.50000", "lng": "-74.04694" },
    { "name": "Lautenthalite", "lat": "51.87056", "lng": "10.28667" },
    { "name": "Lautite", "lat": "50.66236", "lng": "13.14478" },
    { "name": "Lawrencite", "lat": "36.43333", "lng": "-83.75000" },
    { "name": "Lawsonbauerite", "lat": "41.08361", "lng": "-74.60472" },
    { "name": "Lawsonite", "lat": "37.88889", "lng": "-122.45000" },
    { "name": "Lazarenkoite", "lat": "51.11667", "lng": "93.66667" },
    { "name": "Lazurite", "lat": "36.16667", "lng": "70.81667" },
    { "name": "Leadhillite", "lat": "55.42333", "lng": "-3.76750" },
    { "name": "Lecontite", "lat": "14.32185", "lng": "-87.67791" },
    { "name": "Lehnerite", "lat": "49.65028", "lng": "12.45972" },
    { "name": "Leifite", "lat": "61.03306", "lng": "-45.37778" },
    { "name": "Leightonite", "lat": "-22.28944", "lng": "-68.90111" },
    { "name": "Leiteite", "lat": "-19.22704", "lng": "17.72764" },
    { "name": "Lemoynite", "lat": "45.56278", "lng": "-73.14167" },
    { "name": "Lengenbachite", "lat": "46.36500", "lng": "8.22111" },
    { "name": "Leningradite", "lat": "55.68333", "lng": "160.23333" },
    { "name": "Lennilenapeite", "lat": "41.11583", "lng": "-74.58750" },
    { "name": "Lenoblite", "lat": "-1.43333", "lng": "13.15000" },
    { "name": "Leonite", "lat": "51.96222", "lng": "11.38917" },
    { "name": "Leucosphenite", "lat": "61.03306", "lng": "-45.37778" },
    { "name": "Lévyclaudite", "lat": "40.98333", "lng": "25.78333" },
    { "name": "Hydroxycalcioroméite", "lat": "-20.32499", "lng": "-43.69855" },
    { "name": "Lithiotantite", "lat": "49.68306", "lng": "83.00139" },
    { "name": "Liandratite", "lat": "-16.63528", "lng": "47.40194" },
    { "name": "Lithosite", "lat": "67.66556", "lng": "33.85917" },
    { "name": "Litidionite", "lat": "40.82167", "lng": "14.42625" },
    { "name": "Liveingite", "lat": "46.36500", "lng": "8.22111" },
    { "name": "Livingstonite", "lat": "18.30000", "lng": "-99.35000" },
    { "name": "Lonecreekite", "lat": "-25.10222", "lng": "30.70917" },
    { "name": "Lonsdaleite", "lat": "35.02806", "lng": "-111.02250" },
    { "name": "Lorándite", "lat": "41.14833", "lng": "21.95361" },
    { "name": "Lorenzenite", "lat": "61.03306", "lng": "-45.37778" },
    { "name": "Loseyite", "lat": "41.11583", "lng": "-74.58750" },
    { "name": "Lotharmeyerite", "lat": "25.79361", "lng": "-103.79111" },
    { "name": "Loudounite", "lat": "39.06861", "lng": "-77.51611" },
    { "name": "Loughlinite", "lat": "41.62218", "lng": "-109.81126" },
    { "name": "Lourenswalsite", "lat": "34.43825", "lng": "-92.86321" },
    { "name": "Lovdarite", "lat": "67.88333", "lng": "34.63333" },
    { "name": "Loveringite", "lat": "-32.14610", "lng": "121.81097" },
    { "name": "Ludlamite", "lat": "50.24831", "lng": "-5.11009" },
    { "name": "Ludlockite", "lat": "-19.22704", "lng": "17.72764" },
    { "name": "Lueshite", "lat": "-0.98667", "lng": "29.14083" },
    { "name": "Lüneburgite", "lat": "53.25013", "lng": "10.38416" },
    { "name": "Lunijianlaite", "lat": "28.36944", "lng": "120.03639" },
    { "name": "Löweite", "lat": "47.66667", "lng": "13.63333" },
    { "name": "Lyonsite", "lat": "13.81366", "lng": "-89.63264" },
    { "name": "Leucite", "lat": "40.84028", "lng": "14.42000" },
    { "name": "Litharge", "lat": "34.23000", "lng": "-117.55417" },
    { "name": "Manganarsite", "lat": "59.85538", "lng": "14.26480" },
    { "name": "Manganhumite", "lat": "59.83333", "lng": "14.12472" },
    { "name": "Manganosegelerite", "lat": "68.38361", "lng": "35.86361" },
    { "name": "Magnesiozippeite", "lat": "38.75555", "lng": "-110.94778" },
    { "name": "Manganochromite", "lat": "-35.00278", "lng": "138.93500" },
    { "name": "Magnesiocoulsonite", "lat": "51.63333", "lng": "103.70000" },
    { "name": "Magnesiostaurolite", "lat": "44.60000", "lng": "7.28306" },
    { "name": "Manganberzeliite", "lat": "59.66847", "lng": "14.60791" },
    { "name": "Manganolangbeinite", "lat": "40.82167", "lng": "14.42625" },
    { "name": "Magnesiocopiapite", "lat": "33.61028", "lng": "-114.59556" },
    { "name": "Manganohörnesite", "lat": "59.85538", "lng": "14.26480" },
    {
      "name": "Magnesiochlorophoenicite",
      "lat": "41.11583",
      "lng": "-74.58750"
    },
    { "name": "Magnesiocarpholite", "lat": "45.40528", "lng": "6.82750" },
    { "name": "Magnesioferrite", "lat": "40.82167", "lng": "14.42625" },
    { "name": "Manganosite", "lat": "51.77639", "lng": "10.77028" },
    { "name": "Macaulayite", "lat": "57.31127", "lng": "-2.56323" },
    { "name": "Macedonite", "lat": "41.24750", "lng": "21.47556" },
    { "name": "Macfallite", "lat": "47.45491", "lng": "-87.86503" },
    { "name": "Machatschkiite", "lat": "48.33056", "lng": "8.32247" },
    { "name": "Mackayite", "lat": "37.71694", "lng": "-117.22361" },
    { "name": "Mackinawite", "lat": "47.98139", "lng": "-121.44194" },
    { "name": "Macphersonite", "lat": "55.42333", "lng": "-3.76750" },
    { "name": "Macquartite", "lat": "32.70639", "lng": "-110.68306" },
    { "name": "Madocite", "lat": "44.50222", "lng": "-77.46639" },
    { "name": "Manganite", "lat": "51.59167", "lng": "10.75111" },
    { "name": "Manganostibite", "lat": "59.83333", "lng": "14.12472" },
    { "name": "Manganotychite", "lat": "67.85000", "lng": "34.53333" },
    { "name": "Magbasite", "lat": "41.79583", "lng": "109.96944" },
    { "name": "Magnetoplumbite", "lat": "59.85538", "lng": "14.26480" },
    { "name": "Magnolite", "lat": "39.98861", "lng": "-105.36778" },
    { "name": "Magnussonite", "lat": "59.85538", "lng": "14.26480" },
    { "name": "Malhmoodite", "lat": "34.48345", "lng": "-92.98351" },
    { "name": "Majakite", "lat": "69.50340", "lng": "88.42800" },
    { "name": "Makarochkinite", "lat": "55.29968", "lng": "60.24889" },
    { "name": "Malayaite", "lat": "4.25417", "lng": "101.23333" },
    { "name": "Maldonite", "lat": "-36.96311", "lng": "144.05954" },
    { "name": "Malladrite", "lat": "40.82167", "lng": "14.42625" },
    { "name": "Mallardite", "lat": "40.48694", "lng": "-112.14056" },
    { "name": "Mammothite", "lat": "32.70639", "lng": "-110.68306" },
    { "name": "Manaksite", "lat": "67.85000", "lng": "34.53333" },
    { "name": "Manandonite", "lat": "-20.24028", "lng": "47.02194" },
    { "name": "Mandarinoite", "lat": "-18.65000", "lng": "-66.01667" },
    { "name": "Mattheddleite", "lat": "55.41846", "lng": "-3.76005" },
    { "name": "Matulaite", "lat": "40.56536", "lng": "-75.33098" },
    { "name": "Mawbyite", "lat": "-31.96873", "lng": "141.46085" },
    { "name": "Maxwellite", "lat": "33.48250", "lng": "-107.96139" },
    { "name": "Mbobomkulite", "lat": "-25.54052", "lng": "30.69041" },
    { "name": "Mcauslanite", "lat": "44.10306", "lng": "-65.68083" },
    { "name": "Mcbirneyite", "lat": "13.81366", "lng": "-89.63264" },
    { "name": "Mcconnellite", "lat": "5.26667", "lng": "-59.83333" },
    { "name": "Mcgillite", "lat": "49.68333", "lng": "-116.00000" },
    { "name": "Mcgovernite", "lat": "41.08361", "lng": "-74.60472" },
    { "name": "Mcguinnessite", "lat": "39.07500", "lng": "-123.12778" },
    { "name": "Mckinstryite", "lat": "47.37333", "lng": "-79.66417" },
    { "name": "Mcnearite", "lat": "48.21361", "lng": "7.15889" },
    { "name": "Metavauxite", "lat": "-18.42400", "lng": "-66.59170" },
    { "name": "Melanovanadite", "lat": "-10.86096", "lng": "-76.57216" },
    { "name": "Melanothallite", "lat": "40.82167", "lng": "14.42625" },
    { "name": "Medaite", "lat": "44.34528", "lng": "9.45889" },
    { "name": "Megacyclite", "lat": "67.61667", "lng": "33.88333" },
    { "name": "Meionite", "lat": "40.84028", "lng": "14.42000" },
    { "name": "Meixnerite", "lat": "48.21861", "lng": "15.02472" },
    { "name": "Melanophlogite", "lat": "37.43056", "lng": "13.75139" },
    { "name": "Melanostibite", "lat": "59.66847", "lng": "14.60791" },
    { "name": "Melanotekite", "lat": "59.85538", "lng": "14.26480" },
    { "name": "Melonite", "lat": "38.02139", "lng": "-120.50361" },
    { "name": "Mélonjosephite", "lat": "30.33766", "lng": "-7.33359" },
    { "name": "Mendozite", "lat": "-32.89386", "lng": "-68.83750" },
    { "name": "Meneghinite", "lat": "43.99139", "lng": "10.25833" },
    { "name": "Mercallite", "lat": "40.82167", "lng": "14.42625" },
    { "name": "Mereheadite", "lat": "51.19556", "lng": "-2.43639" },
    { "name": "Merlinoite", "lat": "42.41667", "lng": "12.93333" },
    { "name": "Merrihueite", "lat": "46.50000", "lng": "25.73333" },
    { "name": "Merwinite", "lat": "34.01667", "lng": "-117.38333" },
    { "name": "Messelite", "lat": "49.91850", "lng": "8.75860" },
    { "name": "Metasaléeite", "lat": "-11.04861", "lng": "26.55083" },
    { "name": "Metauranospinite", "lat": "48.33333", "lng": "8.33333" },
    { "name": "Metaborite", "lat": "47.81667", "lng": "59.61667" },
    { "name": "Metacalciouranoite", "lat": "50.09177", "lng": "118.24956" },
    { "name": "Metacinnabar", "lat": "38.82528", "lng": "-122.33889" },
    { "name": "Metadelrioite", "lat": "38.22969", "lng": "-108.75685" },
    { "name": "Metahohmannite", "lat": "-22.28944", "lng": "-68.90111" },
    { "name": "Metakahlerite", "lat": "48.33333", "lng": "8.33333" },
    { "name": "Metakirchheimerite", "lat": "48.33333", "lng": "8.33333" },
    { "name": "Metaköttigite", "lat": "25.79361", "lng": "-103.79111" },
    { "name": "Metalodèvite", "lat": "43.69564", "lng": "3.36379" },
    { "name": "Metamunirite", "lat": "38.04512", "lng": "-108.88964" },
    { "name": "Metanováčekite", "lat": "48.33056", "lng": "8.32247" },
    { "name": "Metaschoderite", "lat": "39.21611", "lng": "-116.10306" },
    { "name": "Metaschoepite", "lat": "-11.04861", "lng": "26.55083" },
    { "name": "Metastibnite", "lat": "39.38800", "lng": "-119.74380" },
    { "name": "Metastudtite", "lat": "-11.04861", "lng": "26.55083" },
    { "name": "Metaswitzerite", "lat": "35.21111", "lng": "-81.35556" },
    { "name": "Metavandendriesscheite", "lat": "-11.04861", "lng": "26.55083" },
    { "name": "Metavanmeersscheite", "lat": "-3.08333", "lng": "27.13333" },
    { "name": "Metavanuralite", "lat": "-1.43333", "lng": "13.15000" },
    { "name": "Metavivianite", "lat": "43.86500", "lng": "-103.38194" },
    { "name": "Metazeunerite", "lat": "50.58833", "lng": "12.63889" },
    { "name": "Meyerhofferite", "lat": "36.37944", "lng": "-116.76778" },
    { "name": "Meymacite", "lat": "-3.17083", "lng": "28.54167" },
    { "name": "Miargyrite", "lat": "50.93667", "lng": "13.20861" },
    { "name": "Microsommite", "lat": "40.85000", "lng": "14.40000" },
    { "name": "Miersite", "lat": "-31.96074", "lng": "141.46592" },
    { "name": "Mikasaite", "lat": "43.22079", "lng": "142.16194" },
    { "name": "Milarite", "lat": "46.69243", "lng": "8.70162" },
    { "name": "Millisite", "lat": "40.27389", "lng": "-112.15472" },
    { "name": "Mimetite", "lat": "50.44037", "lng": "12.71380" },
    { "name": "Minehillite", "lat": "41.11583", "lng": "-74.58750" },
    { "name": "Minrecordite", "lat": "-19.22704", "lng": "17.72764" },
    { "name": "Minyulite", "lat": "-30.68683", "lng": "115.66181" },
    { "name": "Misenite", "lat": "40.79333", "lng": "14.08417" },
    { "name": "Mitscherlichite", "lat": "40.82167", "lng": "14.42625" },
    { "name": "Mäkinenite", "lat": "66.25458", "lng": "29.42801" },
    { "name": "Molybdomenite", "lat": "-33.02167", "lng": "-69.12778" },
    { "name": "Molybdofornacite", "lat": "-19.22704", "lng": "17.72764" },
    { "name": "Molybdophyllite", "lat": "59.85538", "lng": "14.26480" },
    { "name": "Molysite", "lat": "40.82167", "lng": "14.42625" },
    { "name": "Moncheite", "lat": "67.92250", "lng": "32.83889" },
    { "name": "Monetite", "lat": "18.15972", "lng": "-67.94917" },
    { "name": "Montbrayite", "lat": "48.30833", "lng": "-79.32722" },
    { "name": "Montebrasite", "lat": "46.32000", "lng": "2.30250" },
    { "name": "Monteponite", "lat": "39.30408", "lng": "8.50569" },
    { "name": "Montesommaite", "lat": "40.84560", "lng": "14.39208" },
    { "name": "Montgomeryite", "lat": "40.27389", "lng": "-112.15472" },
    { "name": "Monticellite", "lat": "40.84028", "lng": "14.42000" },
    { "name": "Montroseite", "lat": "38.26485", "lng": "-108.69941" },
    { "name": "Montroyalite", "lat": "45.57222", "lng": "-73.61389" },
    { "name": "Mooihoekite", "lat": "-24.57426", "lng": "30.14183" },
    { "name": "Moolooite", "lat": "-25.00000", "lng": "116.00000" },
    { "name": "Mooreite", "lat": "41.08361", "lng": "-74.60472" },
    { "name": "Moorhouseite", "lat": "45.20620", "lng": "-64.04158" },
    { "name": "Mopungite", "lat": "39.87000", "lng": "-118.72444" },
    { "name": "Moraesite", "lat": "-18.90083", "lng": "-41.48444" },
    { "name": "Mordenite", "lat": "45.10361", "lng": "-64.94972" },
    { "name": "Moreauite", "lat": "-3.08333", "lng": "27.13333" },
    { "name": "Morelandite", "lat": "59.82801", "lng": "14.10721" },
    { "name": "Morimotoite", "lat": "34.76667", "lng": "133.43333" },
    { "name": "Morinite", "lat": "46.32000", "lng": "2.30250" },
    { "name": "Motukoreaite", "lat": "-36.83258", "lng": "174.89432" },
    { "name": "Mounanaite", "lat": "-1.43333", "lng": "13.15000" },
    { "name": "Mountainite", "lat": "-28.76816", "lng": "24.79206" },
    { "name": "Mountkeithite", "lat": "-27.21484", "lng": "120.54588" },
    { "name": "Mourite", "lat": "44.11667", "lng": "73.13333" },
    { "name": "Mozartite", "lat": "44.19833", "lng": "9.70750" },
    { "name": "Mpororoite", "lat": "-1.09611", "lng": "29.69778" },
    { "name": "Mrázekite", "lat": "48.74722", "lng": "19.38500" },
    { "name": "Mroseite", "lat": "29.80000", "lng": "-109.66667" },
    { "name": "Mückeite", "lat": "50.74919", "lng": "7.89263" },
    { "name": "Muirite", "lat": "36.91667", "lng": "-119.24500" },
    { "name": "Mukhinite", "lat": "53.46667", "lng": "88.36667" },
    { "name": "Mullite", "lat": "56.37773", "lng": "-6.07715" },
    { "name": "Mummeite", "lat": "37.93111", "lng": "-107.62944" },
    { "name": "Mundite", "lat": "-3.08333", "lng": "27.13333" },
    { "name": "Mundrabillaite", "lat": "-31.86930", "lng": "127.38872" },
    { "name": "Murdochite", "lat": "32.70639", "lng": "-110.68306" },
    { "name": "Muskoxite", "lat": "67.20833", "lng": "-114.88333" },
    { "name": "Muthmannite", "lat": "45.97389", "lng": "23.04000" },
    { "name": "Nabaphite", "lat": "67.64059", "lng": "33.74245" },
    { "name": "Nabokoite", "lat": "55.83333", "lng": "160.33333" },
    { "name": "Nacaphite", "lat": "67.61667", "lng": "33.88333" },
    { "name": "Nacrite", "lat": "50.87175", "lng": "13.31940" },
    { "name": "Nadorite", "lat": "36.32361", "lng": "7.64278" },
    { "name": "Nagyágite", "lat": "45.97389", "lng": "23.04000" },
    { "name": "Nahcolite", "lat": "40.82167", "lng": "14.42625" },
    { "name": "Nahpoite", "lat": "68.46667", "lng": "-136.50000" },
    { "name": "Nalipoite", "lat": "45.56278", "lng": "-73.14167" },
    { "name": "Namibite", "lat": "-20.24121", "lng": "14.45764" },
    { "name": "Namuwite", "lat": "53.10525", "lng": "-3.80168" },
    { "name": "Nanlingite", "lat": "25.77028", "lng": "113.17472" },
    { "name": "Nanpingite", "lat": "26.65722", "lng": "118.10222" },
    { "name": "Nantokite", "lat": "-27.51449", "lng": "-70.28840" },
    { "name": "Narsarsukite", "lat": "61.03306", "lng": "-45.37778" },
    { "name": "Nasinite", "lat": "43.23333", "lng": "10.86667" },
    { "name": "Nasonite", "lat": "41.12028", "lng": "-74.58278" },
    { "name": "Natalyite", "lat": "51.63333", "lng": "103.70000" },
    { "name": "Natisite", "lat": "67.88333", "lng": "34.63333" },
    { "name": "Natrochalcite", "lat": "-22.28944", "lng": "-68.90111" },
    { "name": "Natrodufrénite", "lat": "47.69654", "lng": "-2.36229" },
    { "name": "Natronambulite", "lat": "39.91667", "lng": "141.90000" },
    { "name": "Natrophilite", "lat": "41.26778", "lng": "-73.43917" },
    { "name": "Natrophosphate", "lat": "67.64059", "lng": "33.74245" },
    { "name": "Natrosilite", "lat": "67.88333", "lng": "34.63333" },
    { "name": "Natrotantite", "lat": "68.38361", "lng": "35.86361" },
    { "name": "Naujakasite", "lat": "60.91611", "lng": "-45.90000" },
    { "name": "Naumannite", "lat": "51.61623", "lng": "11.29243" },
    { "name": "Navajoite", "lat": "36.92640", "lng": "-109.88876" },
    { "name": "Nchwaningite", "lat": "-27.13611", "lng": "22.86472" },
    { "name": "Nekoite", "lat": "34.01667", "lng": "-117.38333" },
    { "name": "Nekrasovite", "lat": "40.98333", "lng": "70.25000" },
    { "name": "Nelenite", "lat": "41.11778", "lng": "-74.58750" },
    { "name": "Neltnerite", "lat": "30.78333", "lng": "-6.85000" },
    { "name": "Neotocite", "lat": "60.52944", "lng": "16.37351" },
    { "name": "Nepheline", "lat": "40.84028", "lng": "14.42000" },
    { "name": "Népouite", "lat": "-21.16748", "lng": "165.01100" },
    { "name": "Neptunite", "lat": "61.03306", "lng": "-45.37778" },
    { "name": "Nesquehonite", "lat": "40.86250", "lng": "-75.81250" },
    { "name": "Nevskite", "lat": "62.26722", "lng": "155.48583" },
    { "name": "Newberyite", "lat": "-37.73694", "lng": "143.34778" },
    { "name": "Neyite", "lat": "55.41667", "lng": "-129.42500" },
    { "name": "Nickelhexahydrite", "lat": "69.46667", "lng": "88.45000" },
    { "name": "Nickelbischofite", "lat": "48.64889", "lng": "-78.44222" },
    { "name": "Niahite", "lat": "3.80500", "lng": "113.76900" },
    { "name": "Nickelboussingaultite", "lat": "69.75000", "lng": "88.58333" },
    { "name": "Nifontovite", "lat": "59.78333", "lng": "60.50000" },
    { "name": "Niggliite", "lat": "-30.78353", "lng": "29.30856" },
    { "name": "Nimite", "lat": "-25.67314", "lng": "31.16952" },
    { "name": "Ningyoite", "lat": "35.30833", "lng": "133.92278" },
    { "name": "Nowackiite", "lat": "46.36500", "lng": "8.22111" },
    { "name": "Nsutite", "lat": "5.28333", "lng": "-1.96667" },
    { "name": "Nuffieldite", "lat": "55.41667", "lng": "-129.42500" },
    { "name": "Nukundamite", "lat": "-16.16444", "lng": "179.95833" },
    { "name": "Nullaginite", "lat": "-21.73611", "lng": "120.07778" },
    { "name": "Nybøite", "lat": "61.93409", "lng": "5.21711" },
    { "name": "Nyerereite", "lat": "-2.75000", "lng": "35.93333" },
    { "name": "Natrolite", "lat": "47.76556", "lng": "8.81944" },
    { "name": "Nakauriite", "lat": "34.84935", "lng": "137.55206" },
    { "name": "Offretite", "lat": "45.62965", "lng": "3.98280" },
    { "name": "Ogdensburgite", "lat": "41.08361", "lng": "-74.60472" },
    { "name": "Ohmilite", "lat": "37.02176", "lng": "137.78849" },
    { "name": "Ojuelaite", "lat": "25.79361", "lng": "-103.79111" },
    { "name": "Okhotskite", "lat": "43.96667", "lng": "143.93333" },
    { "name": "Oldhamite", "lat": "26.75000", "lng": "82.70000" },
    { "name": "Olenite", "lat": "68.43389", "lng": "35.72056" },
    { "name": "Olgite", "lat": "67.88333", "lng": "34.63333" },
    { "name": "Olivenite", "lat": "50.23452", "lng": "-5.17414" },
    { "name": "Olkhonskite", "lat": "52.93390", "lng": "106.78441" },
    { "name": "Olmsteadite", "lat": "43.86500", "lng": "-103.38194" },
    { "name": "Olsacherite", "lat": "-18.65000", "lng": "-66.01667" },
    { "name": "Olshanskyite", "lat": "67.50000", "lng": "139.10000" },
    { "name": "Olympite", "lat": "67.61667", "lng": "33.88333" },
    { "name": "Omeiite", "lat": "30.69861", "lng": "101.90972" },
    { "name": "Omphacite", "lat": "50.13139", "lng": "11.68528" },
    { "name": "Onoratoite", "lat": "43.23198", "lng": "11.16830" },
    { "name": "Oosterboschite", "lat": "-10.71083", "lng": "25.39889" },
    { "name": "Oregonite", "lat": "42.22111", "lng": "-123.70972" },
    { "name": "Orickite", "lat": "41.13333", "lng": "-123.85889" },
    { "name": "Orlymanite", "lat": "-27.11353", "lng": "22.85439" },
    { "name": "Orschallite", "lat": "50.44833", "lng": "7.13917" },
    { "name": "Orthopinakiolite", "lat": "59.85538", "lng": "14.26480" },
    { "name": "Orthoserpierite", "lat": "45.89583", "lng": "4.61278" },
    { "name": "Orthowalpurgite", "lat": "48.33694", "lng": "8.34139" },
    { "name": "Osarizawaite", "lat": "40.18333", "lng": "140.75000" },
    { "name": "Osarsite", "lat": "41.37333", "lng": "-124.07056" },
    { "name": "Osbornite", "lat": "26.75000", "lng": "82.70000" },
    { "name": "Otavite", "lat": "-19.22704", "lng": "17.72764" },
    { "name": "Otjisumeite", "lat": "-19.22704", "lng": "17.72764" },
    { "name": "Ottemannite", "lat": "-19.61833", "lng": "-65.74972" },
    { "name": "Otwayite", "lat": "-21.73611", "lng": "120.07778" },
    { "name": "Oulankaite", "lat": "66.30889", "lng": "31.00528" },
    { "name": "Ourayite", "lat": "37.95333", "lng": "-107.62472" },
    { "name": "Oursinite", "lat": "-11.04861", "lng": "26.55083" },
    { "name": "Overite", "lat": "40.27389", "lng": "-112.15472" },
    { "name": "Owyheeite", "lat": "43.00444", "lng": "-116.71000" },
    { "name": "Oxammite", "lat": "-8.55000", "lng": "-78.96667" },
    { "name": "Oyelite", "lat": "34.76667", "lng": "133.43333" },
    { "name": "Örebroite", "lat": "59.66847", "lng": "14.60791" },
    { "name": "Pabstite", "lat": "36.98259", "lng": "-122.04830" },
    { "name": "Pachnolite", "lat": "61.20611", "lng": "-48.17556" },
    { "name": "Padĕraite", "lat": "46.48125", "lng": "22.58230" },
    { "name": "Padmaite", "lat": "62.36151", "lng": "35.43730" },
    { "name": "Pahasapaite", "lat": "43.71556", "lng": "-103.66944" },
    { "name": "Painite", "lat": "22.93333", "lng": "96.49667" },
    { "name": "Palarstanide", "lat": "69.50340", "lng": "88.42800" },
    { "name": "Palenzonaite", "lat": "44.34528", "lng": "9.45889" },
    { "name": "Palermoite", "lat": "43.75130", "lng": "-71.88956" },
    { "name": "Palladoarsenide", "lat": "69.53600", "lng": "88.46220" },
    { "name": "Palmierite", "lat": "40.82167", "lng": "14.42625" },
    { "name": "Panethite", "lat": "39.75000", "lng": "-84.16667" },
    { "name": "Panunzite", "lat": "40.84028", "lng": "14.42000" },
    { "name": "Paolovite", "lat": "69.52480", "lng": "88.34007" },
    { "name": "Papagoite", "lat": "32.35556", "lng": "-112.86500" },
    { "name": "Parabrandtite", "lat": "41.08361", "lng": "-74.60472" },
    { "name": "Paracelsian", "lat": "45.98192", "lng": "8.42568" },
    { "name": "Paracostibite", "lat": "51.00278", "lng": "-94.20944" },
    { "name": "Paradamite", "lat": "25.79361", "lng": "-103.79111" },
    { "name": "Paradocrasite", "lat": "-31.96074", "lng": "141.46592" },
    { "name": "Parafransoletite", "lat": "43.71556", "lng": "-103.66944" },
    { "name": "Paragonite", "lat": "46.43306", "lng": "8.77694" },
    { "name": "Painite", "lat": "22.93333", "lng": "96.49667" },
    { "name": "Palarstanide", "lat": "69.50340", "lng": "88.42800" },
    { "name": "Palenzonaite", "lat": "44.34528", "lng": "9.45889" },
    { "name": "Palermoite", "lat": "43.75130", "lng": "-71.88956" },
    { "name": "Parnauite", "lat": "40.66917", "lng": "-118.47000" },
    { "name": "Parsettensite", "lat": "46.57306", "lng": "9.68444" },
    { "name": "Parsonsite", "lat": "-11.04861", "lng": "26.55083" },
    { "name": "Parthéite", "lat": "37.58333", "lng": "29.66667" },
    { "name": "Parwelite", "lat": "59.85538", "lng": "14.26480" },
    { "name": "Pascoite", "lat": "-10.86096", "lng": "-76.57216" },
    { "name": "Patrónite", "lat": "-10.86096", "lng": "-76.57216" },
    { "name": "Paulkellerite", "lat": "50.58111", "lng": "12.62389" },
    { "name": "Paulmooreite", "lat": "59.85538", "lng": "14.26480" },
    { "name": "Pavonite", "lat": "-21.79639", "lng": "-66.45111" },
    { "name": "Pearceite", "lat": "39.19167", "lng": "-106.80833" },
    { "name": "Pecoraite", "lat": "-19.17187", "lng": "127.79538" },
    { "name": "Peisleyite", "lat": "-34.35940", "lng": "138.98826" },
    { "name": "Pekoite", "lat": "-19.70235", "lng": "134.24493" },
    { "name": "Pellyite", "lat": "62.84722", "lng": "-130.01417" },
    { "name": "Penikisite", "lat": "68.54000", "lng": "-136.79960" },
    { "name": "Penkvilksite", "lat": "67.88333", "lng": "34.63333" },
    { "name": "Pennantite", "lat": "52.82073", "lng": "-4.63896" },
    { "name": "Penroseite", "lat": "-18.65000", "lng": "-66.01667" },
    { "name": "Pentagonite", "lat": "43.62480", "lng": "-117.23541" },
    { "name": "Pentahydroborite", "lat": "59.78333", "lng": "60.50000" },
    { "name": "Peretaite", "lat": "42.64333", "lng": "11.35778" },
    { "name": "Periclase", "lat": "40.84028", "lng": "14.42000" },
    { "name": "Perite", "lat": "59.85538", "lng": "14.26480" },
    { "name": "Perloffite", "lat": "43.86500", "lng": "-103.38194" },
    { "name": "Permingeatite", "lat": "49.54944", "lng": "14.25333" },
    { "name": "Perovskite", "lat": "55.16667", "lng": "59.63333" },
    { "name": "Perroudite", "lat": "43.08139", "lng": "6.03222" },
    { "name": "Perryite", "lat": "37.58333", "lng": "-102.76667" },
    { "name": "Petalite", "lat": "58.96611", "lng": "18.32972" },
    { "name": "Petarasite", "lat": "45.56278", "lng": "-73.14167" },
    { "name": "Petedunnite", "lat": "41.11472", "lng": "-74.58722" },
    { "name": "Petrovicite", "lat": "49.54593", "lng": "16.06262" },
    { "name": "Petrovskaite", "lat": "51.48333", "lng": "75.80000" },
    { "name": "Petscheckite", "lat": "-16.63528", "lng": "47.40194" },
    { "name": "Petzite", "lat": "45.97389", "lng": "23.04000" },
    { "name": "Phosphophyllite", "lat": "49.65389", "lng": "12.45639" },
    { "name": "Phosphuranylite", "lat": "35.94259", "lng": "-82.10204" },
    { "name": "Phosphorrösslerite", "lat": "47.06949", "lng": "13.56914" },
    { "name": "Pharmacolite", "lat": "48.33333", "lng": "8.33333" },
    { "name": "Phaunouxite", "lat": "48.21361", "lng": "7.15889" },
    { "name": "Phenakite", "lat": "57.07695", "lng": "61.40259" },
    { "name": "Philipsbornite", "lat": "-41.88944", "lng": "145.43083" },
    { "name": "Philipsburgite", "lat": "46.44778", "lng": "-113.36556" },
    { "name": "Phoenicochroite", "lat": "56.90000", "lng": "60.78333" },
    { "name": "Phosphammite", "lat": "-28.70000", "lng": "123.93333" },
    { "name": "Phosphofibrite", "lat": "48.37963", "lng": "8.22895" },
    { "name": "Phuralumite", "lat": "-3.08333", "lng": "27.13333" },
    { "name": "Phurcalite", "lat": "50.46917", "lng": "12.26167" },
    { "name": "Phyllotungstite", "lat": "48.37963", "lng": "8.22895" },
    { "name": "Pickeringite", "lat": "-20.62944", "lng": "-69.65722" },
    { "name": "Picotpaulite", "lat": "41.14833", "lng": "21.95361" },
    { "name": "Picromerite", "lat": "40.82167", "lng": "14.42625" },
    { "name": "Picromerite", "lat": "40.82167", "lng": "14.42625" },
    { "name": "Piemontite", "lat": "45.67944", "lng": "7.44944" },
    { "name": "Pierrotite", "lat": "44.81250", "lng": "6.32167" },
    { "name": "Pigeonite", "lat": "47.99805", "lng": "-89.53806" },
    { "name": "Pinakiolite", "lat": "59.85538", "lng": "14.26480" },
    { "name": "Pinalite", "lat": "32.70639", "lng": "-110.68306" },
    { "name": "Pirquitasite", "lat": "-22.68611", "lng": "-66.54167" },
    { "name": "Pirssonite", "lat": "35.73833", "lng": "-117.37389" },
    { "name": "Pitiglianoite", "lat": "42.64250", "lng": "11.73028" },
    { "name": "Pitticite", "lat": "50.98889", "lng": "13.29528" },
    { "name": "Piypite", "lat": "55.83333", "lng": "160.33333" },
    { "name": "Pääkkönenite", "lat": "62.73000", "lng": "22.94833" },
    { "name": "Plumbotsumite", "lat": "-19.22704", "lng": "17.72764" },
    { "name": "Plagionite", "lat": "51.55306", "lng": "11.08611" },
    { "name": "Platarsite", "lat": "-24.78264", "lng": "30.12098" },
    { "name": "Plattnerite", "lat": "55.41846", "lng": "-3.76005" },
    { "name": "Playfairite", "lat": "44.50222", "lng": "-77.46639" },
    { "name": "Plumbopalladinite", "lat": "69.50340", "lng": "88.42800" },
    { "name": "Plombièrite", "lat": "47.96537", "lng": "6.45967" },
    { "name": "Plumboferrite", "lat": "59.82801", "lng": "14.10721" },
    { "name": "Poitevinite", "lat": "50.92389", "lng": "-121.42111" },
    { "name": "Polarite", "lat": "69.50340", "lng": "88.42800" },
    { "name": "Poldervaartite", "lat": "-27.11353", "lng": "22.85439" },
    { "name": "Polkovicite", "lat": "51.48726", "lng": "16.06200" },
    { "name": "Polydymite", "lat": "50.74919", "lng": "7.89263" },
    { "name": "Polyhalite", "lat": "47.66667", "lng": "13.63333" },
    { "name": "Polylithionite", "lat": "60.87586", "lng": "-45.87366" },
    { "name": "Plagionite", "lat": "51.55306", "lng": "11.08611" },
    { "name": "Platarsite", "lat": "-24.78264", "lng": "30.12098" },
    { "name": "Plattnerite", "lat": "55.41846", "lng": "-3.76005" },
    { "name": "Playfairite", "lat": "44.50222", "lng": "-77.46639" },
    { "name": "Plumbopalladinite", "lat": "69.50340", "lng": "88.42800" },
    { "name": "Plombièrite", "lat": "47.96537", "lng": "6.45967" },
    { "name": "Plumboferrite", "lat": "59.82801", "lng": "14.10721" },
    { "name": "Poitevinite", "lat": "50.92389", "lng": "-121.42111" },
    { "name": "Polarite", "lat": "69.50340", "lng": "88.42800" },
    { "name": "Poldervaartite", "lat": "-27.11353", "lng": "22.85439" },
    { "name": "Polkovicite", "lat": "51.48726", "lng": "16.06200" },
    { "name": "Polydymite", "lat": "50.74919", "lng": "7.89263" },
    { "name": "Polyhalite", "lat": "47.66667", "lng": "13.63333" },
    { "name": "Polylithionite", "lat": "60.87586", "lng": "-45.87366" },
    { "name": "Polyphite", "lat": "67.85000", "lng": "34.53333" },
    { "name": "Portlandite", "lat": "54.91050", "lng": "-5.91538" },
    { "name": "Posnjakite", "lat": "49.13167", "lng": "73.47806" },
    { "name": "Potarite", "lat": "5.17832", "lng": "-59.47783" },
    { "name": "Pottsite", "lat": "39.32843", "lng": "-116.83676" },
    { "name": "Poudretteite", "lat": "45.56278", "lng": "-73.14167" },
    { "name": "Poughite", "lat": "29.80000", "lng": "-109.66667" },
    { "name": "Powellite", "lat": "45.16908", "lng": "-116.65106" },
    { "name": "Poyarkovite", "lat": "39.93333", "lng": "71.33333" },
    { "name": "Prehnite", "lat": "-32.24794", "lng": "25.86113" },
    { "name": "Preisingerite", "lat": "-30.75000", "lng": "-69.50000" },
    { "name": "Preiswerkite", "lat": "46.34639", "lng": "8.25611" },
    { "name": "Preobrazhenskite", "lat": "48.51667", "lng": "51.95000" },
    { "name": "Priceite", "lat": "42.43472", "lng": "-124.34167" },
    { "name": "Priderite", "lat": "-18.30949", "lng": "124.85721" },
    { "name": "Pringleite", "lat": "45.75417", "lng": "-65.42111" },
    { "name": "Prosopite", "lat": "50.76556", "lng": "13.76472" },
    { "name": "Prosperite", "lat": "-19.22704", "lng": "17.72764" },
    { "name": "Protasite", "lat": "-11.04861", "lng": "26.55083" },
    { "name": "Proudite", "lat": "-19.70235", "lng": "134.24493" },
    { "name": "Pseudolaueite", "lat": "49.65028", "lng": "12.45972" },
    { "name": "Pseudograndreefite", "lat": "32.88250", "lng": "-110.31750" },
    { "name": "Pseudomalachite", "lat": "50.61778", "lng": "7.24944" },
    { "name": "Pseudocotunnite", "lat": "40.82167", "lng": "14.42625" },
    { "name": "Pucherite", "lat": "50.56538", "lng": "12.62327" },
    { "name": "Pyrobelonite", "lat": "59.85538", "lng": "14.26480" },
    { "name": "Pyrochroite", "lat": "59.78444", "lng": "14.31750" },
    { "name": "Pyrophanite", "lat": "59.78528", "lng": "14.31389" },
    { "name": "Pyrostilpnite", "lat": "50.97000", "lng": "13.30972" },
    { "name": "Pyroxferroite", "lat": "8.50000", "lng": "31.40000" },
    { "name": "Petitjeanite", "lat": "49.70917", "lng": "8.74028" },
    { "name": "Pyroaurite", "lat": "59.85538", "lng": "14.26480" },
    { "name": "Qilianshanite", "lat": "38.03167", "lng": "97.15444" },
    { "name": "Quadruphite", "lat": "67.85000", "lng": "34.53333" },
    { "name": "Queitite", "lat": "-19.22704", "lng": "17.72764" },
    { "name": "Quenselite", "lat": "59.85538", "lng": "14.26480" },
    { "name": "Quetzalcoatlite", "lat": "29.80000", "lng": "-109.66667" },
    { "name": "Rabbittite", "lat": "38.75555", "lng": "-110.94778" },
    { "name": "Rabejacite", "lat": "43.68250", "lng": "3.34944" },
    { "name": "Radtkeite", "lat": "41.91943", "lng": "-117.81225" },
    { "name": "Raguinite", "lat": "41.14833", "lng": "21.95361" },
    { "name": "Raite", "lat": "67.88333", "lng": "34.63333" },
    { "name": "Rajite", "lat": "33.23730", "lng": "-108.71983" },
    { "name": "Hydrokenoralstonite", "lat": "61.20611", "lng": "-48.17556" },
    { "name": "Ramdohrite", "lat": "-20.95000", "lng": "-66.30000" },
    { "name": "Rameauite", "lat": "45.98611", "lng": "1.30833" },
    { "name": "Ramsbeckite", "lat": "51.30417", "lng": "8.38000" },
    { "name": "Ranciéite", "lat": "42.76528", "lng": "1.52611" },
    { "name": "Rankachite", "lat": "48.37963", "lng": "8.22895" },
    { "name": "Rankamaite", "lat": "-1.45596", "lng": "28.88444" },
    { "name": "Rankinite", "lat": "54.91050", "lng": "-5.91538" },
    { "name": "Ransomite", "lat": "34.75000", "lng": "-112.12222" },
    { "name": "Ranunculite", "lat": "-3.08333", "lng": "27.13333" },
    { "name": "Rapidcreekite", "lat": "68.54000", "lng": "-136.79960" },
    { "name": "Raspite", "lat": "-31.96648", "lng": "141.46428" },
    { "name": "Rathite", "lat": "46.36500", "lng": "8.22111" },
    { "name": "Rauenthalite", "lat": "48.21361", "lng": "7.15889" },
    { "name": "Rayite", "lat": "24.00000", "lng": "74.00000" },
    { "name": "Rebulite", "lat": "41.14833", "lng": "21.95361" },
    { "name": "Rectorite", "lat": "35.13028", "lng": "-93.71167" },
    { "name": "Reddingite", "lat": "41.26778", "lng": "-73.43917" },
    { "name": "Redingtonite", "lat": "38.82528", "lng": "-122.33889" },
    { "name": "Redledgeite", "lat": "39.34429", "lng": "-120.80103" },
    { "name": "Reevesite", "lat": "-19.17187", "lng": "127.79538" },
    { "name": "Reinhardbraunsite", "lat": "50.35167", "lng": "7.23389" },
    { "name": "Renierite", "lat": "-11.76944", "lng": "27.23556" },
    { "name": "Reppiaite", "lat": "44.35972", "lng": "9.45000" },
    { "name": "Revdite", "lat": "67.88333", "lng": "34.63333" },
    { "name": "Rhodesite", "lat": "-28.76816", "lng": "24.79206" },
    { "name": "Rhodochrosite", "lat": "47.66389", "lng": "23.86139" },
    { "name": "Rhodonite", "lat": "51.77639", "lng": "10.77028" },
    { "name": "Richellite", "lat": "50.71706", "lng": "5.69521" },
    { "name": "Richelsdorfite", "lat": "50.99611", "lng": "9.95472" },
    { "name": "Richetite", "lat": "-11.04861", "lng": "26.55083" },
    { "name": "Richterite", "lat": "59.85538", "lng": "14.26480" },
    { "name": "Rickardite", "lat": "38.34306", "lng": "-107.00722" },
    { "name": "Rilandite", "lat": "40.04981", "lng": "-107.51734" },
    { "name": "Rimkorolgite", "lat": "67.55970", "lng": "30.42584" },
    { "name": "Ringwoodite", "lat": "-25.73333", "lng": "142.95000" },
    { "name": "Riversideite", "lat": "34.02361", "lng": "-117.38389" },
    { "name": "Römerite", "lat": "51.88995", "lng": "10.42098" },
    { "name": "Roaldite", "lat": "-32.10000", "lng": "117.71667" },
    { "name": "Robertsite", "lat": "43.71556", "lng": "-103.66944" },
    { "name": "Robinsonite", "lat": "40.16944", "lng": "-118.17222" },
    { "name": "Rockbridgeite", "lat": "37.83333", "lng": "-79.28333" },
    { "name": "Rodalquilarite", "lat": "36.85056", "lng": "-2.05889" },
    { "name": "Roeblingite", "lat": "41.12028", "lng": "-74.58278" },
    { "name": "Roedderite", "lat": "40.06944", "lng": "47.20444" },
    { "name": "Roggianite", "lat": "46.12889", "lng": "8.41389" },
    { "name": "Romanèchite", "lat": "46.18889", "lng": "4.73361" },
    { "name": "Romarchite", "lat": "50.22083", "lng": "-95.10333" },
    { "name": "Roquesite", "lat": "45.98806", "lng": "3.76333" },
    { "name": "Rosasite", "lat": "39.20237", "lng": "8.71905" },
    { "name": "Roscherite", "lat": "50.64861", "lng": "12.93111" },
    { "name": "Roscoelite", "lat": "38.78556", "lng": "-120.91722" },
    { "name": "Roselite", "lat": "50.58129", "lng": "12.62993" },
    { "name": "Ruitenbergite", "lat": "45.75417", "lng": "-65.42111" },
    { "name": "Ruizite", "lat": "33.05833", "lng": "-110.74583" },
    { "name": "Rusakovite", "lat": "44.53333", "lng": "67.41667" },
    { "name": "Russellite", "lat": "50.42389", "lng": "-4.89194" },
    { "name": "Rustenburgite", "lat": "-25.66667", "lng": "27.25000" },
    { "name": "Rustumite", "lat": "56.69769", "lng": "-6.11341" },
    { "name": "Rutherfordine", "lat": "-7.10500", "lng": "37.65417" },
    { "name": "Rynersonite", "lat": "33.21000", "lng": "-116.79722" },
    { "name": "Retgersite", "lat": "-10.86096", "lng": "-76.57216" },
    { "name": "Sabatierite", "lat": "49.45750", "lng": "16.22861" },
    { "name": "Sabieite", "lat": "-25.10222", "lng": "30.70917" },
    { "name": "Sabinaite", "lat": "45.57222", "lng": "-73.61389" },
    { "name": "Sabugalite", "lat": "40.34343", "lng": "-7.21484" },
    { "name": "Safflorite", "lat": "50.57889", "lng": "12.61611" },
    { "name": "Sahlinite", "lat": "59.85538", "lng": "14.26480" },
    { "name": "Sainfeldite", "lat": "48.21361", "lng": "7.15889" },
    { "name": "Sakhaite", "lat": "67.50000", "lng": "139.10000" },
    { "name": "Sakuraiite", "lat": "35.16667", "lng": "134.82500" },
    { "name": "Saléeite", "lat": "-11.04861", "lng": "26.55083" },
    { "name": "Samfowlerite", "lat": "41.11583", "lng": "-74.58750" },
    { "name": "Sampleite", "lat": "-22.28944", "lng": "-68.90111" },
    { "name": "Samsonite", "lat": "51.71306", "lng": "10.51611" },
    { "name": "Samuelsonite", "lat": "43.75130", "lng": "-71.88956" },
    { "name": "Sanbornite", "lat": "37.69194", "lng": "-119.86417" },
    { "name": "Sanderite", "lat": "52.52472", "lng": "10.13778" },
    { "name": "Saneroite", "lat": "44.35972", "lng": "9.45000" },
    { "name": "Sanidine", "lat": "50.66361", "lng": "7.21000" },